FID,OBJECTID,Site ID,Site Name,Level of Government,State,Level of Protection,Management Agency,Management Plan,Primary Conservation Focus,Conservation Focus,Fishing Restrictions,Protection Focus,Permanence,Constancy,Year Established,Anchor,Vessel,IUCN_MPA,IUCN category,Category,Marine Status,URL,WDPA_Cd,ProSeasID,Designation,Area (km2),Marine Area (km2),Percent Area Marine,No-Take Area (km2),Longitude,Latitude,VxCount,SHAPE_Leng,SHAPE_Area,Shape__Area,Shape__Length
1,1,AK25,Walrus Islands State Game Sanctuary,State,AK,Zoned w/No Take Areas,Alaska Department of Fish and Game,Non-MPA Programmatic Species Management Plan,Natural Heritage,Natural Heritage,Commercial Fishing Restricted,Focal Resource,Permanent,Year-round,1989,,,1,IV,IUCN MPA,Marine,http://www.adfg.alaska.gov/index.cfm?adfg=walrusislands.main,22663,AK25,State Game Sanctuary,753.325,745.4609985,99,0,-160.2310472,58.70088494,2601,3.298504346,0.117017245,2791294150,491586.3031
2,2,NPS10,Cape Hatteras National Seashore,Federal,NC,Uniform Multiple Use,National Park Service,Site-Specific Management Plan,Natural Heritage,Natural Heritage and Cultural Heritage,Commercial and Recreational Fishing Restricted,Ecosystem,Permanent,Year-round,1937,Unrestricted,Restricted,1,V,IUCN MPA,Mixed,https://www.nps.gov/caha/index.htm,1074,NPS10,National Seashore,126.102,28.92048454,23,0,-75.61717993,35.24241198,3797,2.741455005,0.01249547,190140869.1,343505.4
3,3,AS1,Ofu Vaoto Marine Park,Territorial,ASM,No Take,American Samoa Department of Parks & Recreation,No Management Plan,Natural Heritage,Natural Heritage,Commercial and Recreational Fishing Prohibited,Ecosystem,Permanent,Year-round,1994,,,1,Ia,IUCN MPA,Marine,https://gaiapassage.com/american-samoa/,0,AS1,Marine Park,0.384755,0.384747893,100,0.384755284,-169.6702398,-14.18698171,51,0.025234934,3.20254E-05,409343.6055,2837.034473
4,4,CT1,Bluff Point State Park/Natural Area Preserve,State,CT,Zoned Multiple Use,Connecticut Department of Environmental Protection,Site-Specific Management Plan,Natural Heritage,Natural Heritage,Recreational Fishing Restricted,Ecosystem,Permanent,Year-round,1963,,,1,IV,IUCN MPA,Interface,http://www.ct.gov/deep/cwp/view.asp?a=2716&q=325178&deepNav_GID=1650,55557932,CT1,State Park/Natural Area Preserve,2.9846,0.112253532,4,0,-72.03028818,41.3239707,547,0.15601182,0.000320708,5292000.906,19914.00475
5,5,CT10,Silver Sands State Park/Charles Island Natural Area Preserve,State,CT,Zoned Multiple Use,Connecticut Department of Environmental Protection,No Management Plan,Natural Heritage,Natural Heritage,Recreational Fishing Restricted,Ecosystem,Permanent,Year-round,1955,,,1,IV,IUCN MPA,Interface,http://www.ct.gov/deep/cwp/view.asp?a=2716&q=325262&deepNav_GID=1650%20,0,CT10,State Park/Natural Area Preserve,1.22585,0.014841026,1,0,-73.0694981,41.20226499,863,0.114931997,0.000131478,2165473.219,14112.52282
6,6,CT12,Barn Island Wildlife Management Area,State,CT,Uniform Multiple Use,Connecticut Department of Environmental Protection,No Management Plan,Natural Heritage,Natural Heritage and Sustainable Production,No Site Restrictions,Ecosystem,Permanent,Year-round,1944,,,1,VI,IUCN MPA,Interface,http://www.ct.gov/deep/cwp/view.asp?a=2723&Q=578666&deepNav_GID=1655,0,CT12,Wildlife Management Area,3.92673,0.102672882,3,0,-71.86506569,41.34275572,549,0.195540686,0.000422067,6966523.41,24793.7395
7,7,CT14,Charles E. Wheeler Wildlife Mangement Area,State,CT,Uniform Multiple Use,Connecticut Department of Environmental Protection,No Management Plan,Natural Heritage,Natural Heritage and Sustainable Production,No Site Restrictions,Ecosystem,Permanent,Year-round,0,,,1,VI,IUCN MPA,Mixed,http://ct.audubon.org/conservation/milford-point,0,CT14,Wildlife Management Area,2.74839,0.514653146,19,0,-73.10929577,41.18940227,2534,0.510712172,0.000294719,4853147.195,66123.714
8,8,CT16,Duck Island Wildlife Management Area/Natural Area Preserve (Westbrook),State,CT,Uniform Multiple Use,Connecticut Department of Environmental Protection,No Management Plan,Natural Heritage,Natural Heritage,No Site Restrictions,Ecosystem,Permanent,Year-round,1973,,,1,VI,IUCN MPA,Marine,https://www.fws.gov/refuge/Stewart_B_McKinney/what_we_do/westbrook_islands.html,0,CT16,Wildlife Management Area/Natural Area Preserve,0.0132721,0.013272075,100,0,-72.47505323,41.25633943,26,0.005008926,1.42467E-06,23484.02344,689.2282839
9,9,CT18,East River Marsh Wildlife Area/ East River Wildlife Area,State,CT,Uniform Multiple Use,Connecticut Department of Environmental Protection,No Management Plan,Natural Heritage,Natural Heritage and Sustainable Production,No Site Restrictions,Ecosystem,Permanent,Year-round,1960,,,1,VI,IUCN MPA,Mixed,http://www.ct.gov/Deep/cwp/view.asp?a=2723&q=325728&deepNav_GID=1655,0,CT18,Wildlife Area,0.557494,0.034818884,6,0,-72.65505913,41.27476829,216,0.085606788,5.98601E-05,987005.3633,10858.8395
10,10,CT21,Great Harbor Wildlife Area,State,CT,Uniform Multiple Use,Connecticut Department of Environmental Protection,No Management Plan,Natural Heritage,Natural Heritage,No Site Restrictions,Ecosystem,Permanent,Year-round,1945,,,1,VI,IUCN MPA,Marine,"https://connecticut.hometownlocator.com/maps/feature-map,ftc,2,fid,1933828,n,great%20harbor%20wildlife%20area.cfm",0,CT21,Wildlife Area,0.711494,0.711494327,100,0,-72.70207404,41.26346968,302,0.095701615,7.63824E-05,1259215.043,12090.03209
11,11,CT22,Great Island Wildlife Area/Roger Tory Peterson Natural Area Preserve,State,CT,Uniform Multiple Use,Connecticut Department of Environmental Protection,No Management Plan,Natural Heritage,Natural Heritage,Recreational Fishing Restricted,Ecosystem,Permanent,Year-round,1931,,,1,VI,IUCN MPA,Mixed,https://www.ctaudubon.org/rtp-estuary-home/,0,CT22,Wildlife Area/Natural Area Preserve,2.29285,0.273713708,12,0,-72.33371342,41.29151046,963,0.279429282,0.000246264,4061742.098,36053.8726
12,12,CT24,Hammock River Marsh Wildlife Area,State,CT,Uniform Multiple Use,Connecticut Department of Environmental Protection,No Management Plan,Natural Heritage,"Natural Heritage, Cultural Heritage and Sustainable Production",No Site Restrictions,Ecosystem,Permanent,Year-round,1969,,,1,VI,IUCN MPA,Marine,http://www.ct.gov/Deep/cwp/view.asp?a=2723&q=325728&deepNav_GID=1655,0,CT24,Wildlife Area,0.367092,0.367091507,100,0,-72.50673351,41.26662111,275,0.092975547,3.9411E-05,649747.6797,11966.54783
13,13,CT25,Lords Cove Wildlife Area/Natural Area Preserve,State,CT,Uniform Multiple Use,Connecticut Department of Environmental Protection,No Management Plan,Natural Heritage,Natural Heritage,No Site Restrictions,Ecosystem,Permanent,Year-round,1931,,,1,VI,IUCN MPA,Mixed,http://www.ct.gov/Deep/cwp/view.asp?a=2723&q=325728&deepNav_GID=1655,0,CT25,Wildlife Area/Natural Area Preserve,0.680112,0.059634816,9,0,-72.362874,41.34885017,541,0.164184641,7.31135E-05,1206976.113,20929.85589
14,14,CT27,Nott Island Wildlife Area,State,CT,Uniform Multiple Use,Connecticut Department of Environmental Protection,No Management Plan,Natural Heritage,Natural Heritage,No Site Restrictions,Ecosystem,Permanent,Year-round,0,,,1,VI,IUCN MPA,Mixed,http://www.ct.gov/Deep/cwp/view.asp?a=2723&q=325728&deepNav_GID=1655,0,CT27,Wildlife Area,0.32506,0.01872785,6,0,-72.37147866,41.34868862,117,0.033772656,3.49425E-05,576803.5039,4420.328593
15,15,CT32,Plum Bank Marsh Wildlife Area,State,CT,Uniform Multiple Use,Connecticut Department of Environmental Protection,No Management Plan,Natural Heritage,Natural Heritage and Sustainable Production,No Site Restrictions,Ecosystem,Permanent,Year-round,1957,,,1,VI,IUCN MPA,Interface,http://www.ct.gov/Deep/cwp/view.asp?a=2723&q=325728&deepNav_GID=1655,0,CT32,Wildlife Area,1.00175,0.026511012,3,0,-72.38577148,41.27673872,782,0.223240366,0.000107564,1773608.883,28882.11599
16,16,CT33,Popes Island Wildlife Area,State,CT,Uniform Multiple Use,Connecticut Department of Environmental Protection,No Management Plan,Natural Heritage,Natural Heritage and Sustainable Production,No Site Restrictions,Ecosystem,Permanent,Year-round,1955,,,1,VI,IUCN MPA,Marine,http://www.ct.gov/Deep/cwp/view.asp?a=2723&q=325728&deepNav_GID=1655,0,CT33,Wildlife Area,0.0976259,0.097625896,100,0,-73.11050753,41.2194892,40,0.014578155,1.04736E-05,172547.6133,2068.995317
17,17,CT34,Quinnipiac River Marsh Wildlife Area,State,CT,Uniform Multiple Use,Connecticut Department of Environmental Protection,No Management Plan,Natural Heritage,Natural Heritage and Sustainable Production,No Site Restrictions,Ecosystem,Permanent,Year-round,1977,,,1,VI,IUCN MPA,Mixed,http://www.ct.gov/Deep/cwp/view.asp?a=2723&q=325728&deepNav_GID=1655,0,CT34,Wildlife Area,2.28382,0.137200117,6,0,-72.88317884,41.34877277,980,0.317417964,0.0002455,4052534.922,40120.45109
18,18,CT35,Ragged Rock Creek Marsh Wildlife Area,State,CT,Uniform Multiple Use,Connecticut Department of Environmental Protection,No Management Plan,Natural Heritage,Natural Heritage and Sustainable Production,No Site Restrictions,Ecosystem,Permanent,Year-round,1942,,,1,VI,IUCN MPA,Mixed,http://www.ct.gov/Deep/cwp/view.asp?a=2723&q=325728&deepNav_GID=1655,0,CT35,Wildlife Area,0.800953,0.057751197,7,0,-72.35905186,41.30605316,384,0.128524491,8.60374E-05,1419228.617,16501.10093
19,19,CT38,South Cove Wildlife Area,State,CT,Uniform Multiple Use,Connecticut Department of Environmental Protection,No Management Plan,Natural Heritage,Natural Heritage and Sustainable Production,No Site Restrictions,Ecosystem,Permanent,Year-round,1968,,,1,VI,IUCN MPA,Interface,http://www.ct.gov/Deep/cwp/view.asp?a=2723&q=325728&deepNav_GID=1655,0,CT38,Wildlife Area,0.105426,0.004901103,5,0,-72.36916553,41.26871073,130,0.028920516,1.13189E-05,186613.8906,3668.022775
20,20,CT4,Hammonasset Beach State Park,State,CT,Zoned Multiple Use,Connecticut Department of Environmental Protection,No Management Plan,Natural Heritage,Natural Heritage,Recreational Fishing Restricted,Ecosystem,Permanent,Year-round,1920,,,1,IV,IUCN MPA,Interface,http://www.ct.gov/deep/cwp/view.asp?a=2716&q=325210&deepNav_GID=1650%20,0,CT4,State Park,2.3552,0.003729505,0,0,-72.55844508,41.26590183,520,0.189338045,0.000252851,4168576.988,24101.58973
21,21,CT5,Harkness Memorial State Park/William A Niering Natural Area Preserve,State,CT,Uniform Multiple Use,Connecticut Department of Environmental Protection,Site-Specific Management Plan,Natural Heritage,Natural Heritage and Cultural Heritage,No Site Restrictions,Ecosystem,Permanent,Year-round,1952,,,1,IV,IUCN MPA,Interface,http://www.ct.gov/deep/cwp/view.asp?a=2716&q=325214&deepNav_GID=1650%20,55557962,CT5,State Park/Natural Area Preserve,1.33631,0.00853257,1,0,-72.1173045,41.30758744,153,0.087257005,0.000143556,2368219.121,10956.7774
22,22,CT8,Selden Neck State Park/Natural Area Preserve,State,CT,Zoned Multiple Use,Connecticut Department of Environmental Protection,No Management Plan,Natural Heritage,Natural Heritage,No Site Restrictions,Ecosystem,Permanent,Year-round,1917,,,1,IV,IUCN MPA,Marine,http://www.ct.gov/deep/cwp/view.asp?a=2716&q=435364&deepNav_GID=1650#map,0,CT8,State Park/Natural Area Preserve,2.27965,2.279646397,100,0,-72.41000684,41.398065,236,0.089887476,0.000245237,4051263.953,11492.78985
23,23,DE1,Cape Henlopen State Park,State,DE,Zoned Multiple Use,Delaware Department of Natural Resources and Environmental Control,Site-Specific Management Plan,Natural Heritage,Natural Heritage and Sustainable Production,Recreational Fishing Restricted,Ecosystem,Permanent,Year-round,1964,,,1,IV,IUCN MPA,Interface,https://www.destateparks.com/park/cape-henlopen/,21757,DE1,State Park,21.7595,0.459614336,2,0,-75.10226196,38.75873631,818,0.596423805,0.002251801,35784573.6,74821.98824
24,24,DE10,Augustine Wildlife Area,State,DE,Zoned Multiple Use,Delaware Department of Natural Resources and Environmental Control,Site-Specific Management Plan,Natural Heritage,Natural Heritage and Sustainable Production,No Site Restrictions,Ecosystem,Permanent,Year-round,1964,,,1,VI,IUCN MPA,Mixed,https://www.stateparks.com/augustine_state_wildlife_management_area_in_delaware.html,5555991,DE10,Wildlife Area,10.5465,0.608316243,6,0,-75.59185657,39.46283284,2965,0.409282379,0.001102813,17708395.21,52995.62372
25,25,DE4,Ted Harvey Conservation Area (Wildlife Area),State,DE,Zoned Multiple Use,Delaware Department of Natural Resources and Environmental Control,Site-Specific Management Plan,Natural Heritage,Natural Heritage and Sustainable Production,No Site Restrictions,Ecosystem,Permanent,Year-round,1979,,,1,VI,IUCN MPA,Interface,https://www.visitdelaware.com/listings/ted-harvey-wildlife-area/2420/,555586786,DE4,Wildlife Area,10.4844,0.279671669,3,0,-75.424866,39.08372876,1842,0.463150778,0.001089963,17400712.06,58135.02989
26,26,DE6,Little Creek Wildlife Area,State,DE,Zoned Multiple Use,Delaware Department of Natural Resources and Environmental Control,Site-Specific Management Plan,Natural Heritage,Natural Heritage and Sustainable Production,No Site Restrictions,Ecosystem,Permanent,Year-round,1957,,,1,VI,IUCN MPA,Interface,https://www.visitdelaware.com/listings/little-creek-wildlife-area/2410/,555586788,DE6,Wildlife Area,18.8365,0.471217453,3,0,-75.42588819,39.1636055,2214,0.560169621,0.001960481,31333541.28,70144.56781
27,27,DE8,Assawoman Wildlife Area,State,DE,Zoned Multiple Use,Delaware Department of Natural Resources and Environmental Control,Site-Specific Management Plan,Natural Heritage,Natural Heritage and Sustainable Production,No Site Restrictions,Ecosystem,Permanent,Year-round,1943,,,1,VI,IUCN MPA,Interface,https://www.stateparks.com/assawoman_bay_state_wildlife_area_in_delaware.html,5555989,DE8,Wildlife Area,11.6245,0.590642035,5,0,-75.09952555,38.49292553,2888,0.636573449,0.001198874,18987066.97,79458.60997
28,28,DE9,Cedar Swamp Wildlife Area,State,DE,Zoned Multiple Use,Delaware Department of Natural Resources and Environmental Control,Site-Specific Management Plan,Natural Heritage,Natural Heritage and Sustainable Production,No Site Restrictions,Ecosystem,Permanent,Year-round,1981,,,1,VI,IUCN MPA,Mixed,http://www.dnrec.delaware.gov:80/fw/Hunting/Pages/WildlifeAreaMaps.aspx,555586789,DE9,Wildlife Area,21.7952,1.551019073,7,0,-75.55877388,39.38817209,3697,0.653150236,0.002275699,36488335.78,81540.33135
29,29,FL1,Alligator Harbor Aquatic Preserve,State,FL,Uniform Multiple Use,Florida Department of Environmental Protection,Site-Specific Management Plan,Natural Heritage,Natural Heritage,No Site Restrictions,Ecosystem,Permanent,Year-round,1969,Unrestricted,Unrestricted,1,IV,IUCN MPA,Marine,https://floridadep.gov/coastal/sites/alligator/; Site Management Plan|https://www.gpo.gov/fdsys/pkg/CZIC-qh91-75-f6-a55-1986/html/CZIC-qh91-75-f6-a55-1986.htm,555586744,FL1,Aquatic Preserve,58.3904,57.79964828,99,0,-84.46590749,29.90151681,1666,0.5555309,0.005435513,77700013.52,65015.46649
30,30,FL10,Estero Bay Aquatic Preserve,State,FL,Uniform Multiple Use,Florida Department of Environmental Protection,Site-Specific Management Plan,Natural Heritage,Natural Heritage,No Site Restrictions,Ecosystem,Permanent,Year-round,1966,Unrestricted,Unrestricted,1,IV,IUCN MPA,Mixed,https://floridadep.gov/coastal/sites/estero/,555586745,FL10,Aquatic Preserve,43.5992,40.72282028,93,0,-81.87210051,26.44158622,12535,2.691406364,0.003928487,54357249.67,316639.6985
31,31,FL11,Fort Pickens State Park Aquatic Preserve,State,FL,Zoned Multiple Use,Florida Department of Environmental Protection,Site-Specific Management Plan,Natural Heritage,Natural Heritage,No Site Restrictions,Ecosystem,Permanent,Year-round,1970,Unrestricted,Unrestricted,1,IV,IUCN MPA,Marine,https://floridadep.gov/coastal/sites/ftpickens/,555586746,FL11,State Park Aquatic Preserve,126.004,125.1061325,99,0,-87.28498801,30.29995324,1387,1.088433192,0.011776907,169030219.7,124971.3374
32,32,CA113,Farallon Islands Game Refuge,State,CA,Uniform Multiple Use,California Department of Fish and Wildlife,No Management Plan,Natural Heritage,Natural Heritage,No Site Restrictions,Ecosystem,Permanent,Year-round,1971,Unrestricted,Restricted,1,VI,IUCN MPA,Marine,,0,CA113,Game Refuge,46.2203,46.06332397,100,0,-123.0473107,37.73145127,2172,0.511426795,0.004716015,73892933.3,63651.58297
33,33,CT11,Hammonasset Natural Area Preserve,State,CT,Uniform Multiple Use,Connecticut Department of Environmental Protection,Site-Specific Management Plan,Natural Heritage,Natural Heritage,No Site Restrictions,Ecosystem,Permanent,Year-round,1920,,,1,V,IUCN MPA,Interface,,55557792,CT11,Natural Area Preserve,1.67721,0.085859306,5,0,-72.5454345,41.2596578,608,0.157834475,0.000180046,2968010.566,20475.96171
34,34,DE5,Woodland Beach Wildlife Area,State,DE,Zoned Multiple Use,Delaware Department of Natural Resources and Environmental Control,Site-Specific Management Plan,Natural Heritage,Natural Heritage and Sustainable Production,No Site Restrictions,Ecosystem,Permanent,Year-round,1953,,,1,VI,IUCN MPA,Mixed,,555586787,DE5,Wildlife Area,25.2806,3.8462708,15,0,-75.50850951,39.33333666,2919,0.76130591,0.002637552,42257048.8,95204.37199
35,35,FL520,St. Joseph Bay State Buffer Preserve,State,FL,No Take,Florida Department of Environmental Protection,Site-Specific Management Plan,Natural Heritage,Natural Heritage,Commercial and Recreational Fishing Prohibited,Ecosystem,Permanent,Year-round,1995,,,1,Ia,IUCN MPA,Mixed,https://floridadep.gov/rcp/state-buffer-preserve/locations/st-joseph-bay-state-buffer-preserve,375080,FL520,State Buffer Preserve,22.7007,1.803098798,8,22.70066643,-85.29193594,29.70985151,1109,0.616551199,0.002109133,30092162.5,74241.23941
36,36,FL527,St. Sebastian River Preserve State Park,State,FL,Uniform Multiple Use,Florida Department of Environmental Protection,Site-Specific Management Plan,Natural Heritage,Natural Heritage,Restrictions Unknown,Ecosystem,Permanent,Year-round,1995,,,1,IV,IUCN MPA,Interface,https://www.floridastateparks.org/park/St-Sebastian-River,666669,FL527,State Park,87.8309,0.243167967,0,87.8309,-80.56181277,27.8209712,4370,1.078957048,0.008014039,112289788.9,127427.9696
37,37,FL12,Gasparilla Sound - Charlotte Harbor Aquatic Preserve,State,FL,Uniform Multiple Use,Florida Department of Environmental Protection,Site-Specific Management Plan,Natural Heritage,Natural Heritage,No Site Restrictions,Ecosystem,Permanent,Year-round,1979,Unrestricted,Unrestricted,1,IV,IUCN MPA,Marine,https://floridadep.gov/rcp/aquatic-preserve/locations/gasparilla-sound-charlotte-harbor-aquatic-preserve,555586747,FL12,Aquatic Preserve,341.432,334.5368652,98,0,-82.13823126,26.81680165,11571,2.931507607,0.030872879,428680924.5,346072.1535
38,38,FL1207,Werner-Boyce Salt Springs State Park,State,FL,Uniform Multiple Use,Florida Department of Environmental Protection,Site-Specific Management Plan,Natural Heritage,Natural Heritage,Commercial and Recreational Fishing Restricted,Ecosystem,Permanent,Year-round,1992,Unrestricted,Unrestricted,1,IV,IUCN MPA,Mixed,https://www.floridastateparks.org/park/Werner-Boyce,555586061,FL1207,State Park,16.1406,5.078304291,31,0,-82.72277723,28.31759114,483,0.27589937,0.001479554,20827033.83,32668.18107
39,39,FL14,Lemon Bay Aquatic Preserve,State,FL,Zoned Multiple Use,Florida Department of Environmental Protection,Site-Specific Management Plan,Natural Heritage,Natural Heritage,No Site Restrictions,Ecosystem,Permanent,Year-round,1986,Unrestricted,Unrestricted,1,IV,IUCN MPA,Marine,https://floridadep.gov/coastal/sites/lemon/,555586748,FL14,Aquatic Preserve,27.0603,26.27511597,97,0,-82.34378866,26.91813993,4848,1.372803831,0.002449026,34036083.46,162745.0032
40,40,FL15,Matlacha Pass Aquatic Preserve,State,FL,Uniform Multiple Use,Florida Department of Environmental Protection,Site-Specific Management Plan,Natural Heritage,Natural Heritage,No Site Restrictions,Ecosystem,Permanent,Year-round,1972,Unrestricted,Unrestricted,1,IV,IUCN MPA,Mixed,https://floridadep.gov/coastal/sites/matlacha/,555586749,FL15,Aquatic Preserve,80.4238,53.61367035,67,0,-82.07478549,26.59169684,2778,1.085466752,0.007260432,100653174.8,129662.3668
41,41,FL1507,Apalachicola River Wildlife and Environmental Area,State,FL,Uniform Multiple Use,Florida Fish and Wildlife Conservation Commission,Site-Specific Management Plan,Natural Heritage,Natural Heritage,No Site Restrictions,Ecosystem,Permanent,Year-round,1974,Restricted,Restricted,1,VI,IUCN MPA,Interface,https://myfwc.com/viewing/recreation/wmas/lead/apalachicola-river,365317,FL1507,Wildlife and Environmental Area,349.211,10.04760838,3,0,-85.02405313,29.87518931,1133,2.169686265,0.032499099,464450462.9,261033.5237
42,42,FL1511,Florida Keys Wildlife and Environmental Area,State,FL,Uniform Multiple Use,Florida Fish and Wildlife Conservation Commission,Site-Specific Management Plan,Natural Heritage,Natural Heritage and Sustainable Production,No Site Restrictions,Ecosystem,Permanent,Year-round,1969,,,1,VI,IUCN MPA,Mixed,https://myfwc.com/viewing/recreation/wmas/lead/florida-keys,368569,FL1511,Wildlife and Environmental Area,10.5314,0.679698646,6,0,-81.20825097,24.62017591,8754,1.341885134,0.000935857,12770828.01,156297.6262
43,43,FL1513,Southern Glades Wildlife and Environmental Area,State,FL,Uniform Multiple Use,Florida Fish and Wildlife Conservation Commission,Site-Specific Management Plan,Natural Heritage,Natural Heritage and Sustainable Production,No Site Restrictions,Ecosystem,Permanent,Year-round,1997,,,1,VI,IUCN MPA,Marine,https://myfwc.com/viewing/recreation/wmas/cooperative/southern-glades,555586764,FL1513,Wildlife and Environmental Area,123.661,123.6614685,100,0,-80.5155956,25.33140528,13,0.447331755,0.011040923,151374745.5,52217.23142
44,44,FL17,Pine Island Sound Aquatic Preserve,State,FL,Uniform Multiple Use,Florida Department of Environmental Protection,Site-Specific Management Plan,Natural Heritage,Natural Heritage,No Site Restrictions,Ecosystem,Permanent,Year-round,1970,Unrestricted,Unrestricted,1,IV,IUCN MPA,Marine,https://floridadep.gov/rcp/aquatic-preserve/locations/pine-island-sound-aquatic-preserve,555586750,FL17,Aquatic Preserve,229.495,219.9063263,96,0,-82.16422638,26.58562664,8361,2.316468593,0.020709248,286972636.5,274302.2736
45,45,FL18,Pinellas County Aquatic Preserve,State,FL,Uniform Multiple Use,Florida Department of Environmental Protection,Site-Specific Management Plan,Natural Heritage,Natural Heritage,No Site Restrictions,Ecosystem,Permanent,Year-round,1972,Restricted,Restricted,1,IV,IUCN MPA,Marine,https://floridadep.gov/rcp/aquatic-preserve/locations/pinellas-county-aquatic-preserves,555586751,FL18,Aquatic Preserve,1430.74,1418.258789,99,0,-82.8434443,27.90379304,24061,9.044880978,0.130646665,1831981125,1075991.209
46,46,FL2,Apalachicola Bay Aquatic Preserve,State,FL,Zoned Multiple Use,Florida Department of Environmental Protection,Site-Specific Management Plan,Natural Heritage,Natural Heritage,No Site Restrictions,Ecosystem,Permanent,Year-round,1969,Unrestricted,Unrestricted,1,IV,IUCN MPA,Mixed,https://floridadep.gov/coastal/sites/apalachicola-ap/,555586900,FL2,Aquatic Preserve,418.742,310.2730408,74,0,-85.0057352,29.69665144,3756,1.724700292,0.03890038,554940844.2,203058.6894
47,47,FL20,Rocky Bayou State Park Aquatic Preserve,State,FL,Zoned Multiple Use,Florida Department of Environmental Protection,Site-Specific Management Plan,Natural Heritage,Natural Heritage,No Site Restrictions,Ecosystem,Permanent,Year-round,1970,Unrestricted,Unrestricted,1,IV,IUCN MPA,Marine,https://floridadep.gov/coastal/sites/rocky/,555586752,FL20,Aquatic Preserve,1.49281,1.448677301,97,0,-86.42811992,30.50390518,258,0.061022606,0.000139816,2010931.455,7139.987345
48,48,FL22,St. Andrews State Park Aquatic Preserve,State,FL,Zoned Multiple Use,Florida Department of Environmental Protection,Site-Specific Management Plan,Natural Heritage,Natural Heritage,No Site Restrictions,Ecosystem,Permanent,Year-round,1972,Unrestricted,Unrestricted,1,IV,IUCN MPA,Marine,https://floridadep.gov/coastal/sites/standrews/,555586753,FL22,Aquatic Preserve,96.9372,96.50189209,100,0,-85.70254291,30.08884821,1312,0.736363931,0.00904079,129481597.8,86876.49631
49,49,FL23,St. Joseph Bay Aquatic Preserve,State,FL,Uniform Multiple Use,Florida Department of Environmental Protection,Site-Specific Management Plan,Natural Heritage,Natural Heritage,No Site Restrictions,Ecosystem,Permanent,Year-round,1969,Unrestricted,Unrestricted,1,IV,IUCN MPA,Marine,https://floridadep.gov/rcp/aquatic-preserve/locations/st-joseph-bay-aquatic-preserve,555586754,FL23,Aquatic Preserve,267.072,265.925293,100,0,-85.39146845,29.77157303,2266,1.313439841,0.024829006,354468626.7,161100.9138
50,50,FL24,St. Martins Marsh Aquatic Preserve,State,FL,Uniform Multiple Use,Florida Department of Environmental Protection,Site-Specific Management Plan,Natural Heritage,Natural Heritage,No Site Restrictions,Ecosystem,Permanent,Year-round,1969,Unrestricted,Unrestricted,1,IV,IUCN MPA,Mixed,https://floridadep.gov/coastal/sites/stmartins/,555586755,FL24,Aquatic Preserve,128.015,78.64208984,61,0,-82.69766688,28.83104855,2347,0.910748966,0.011792139,166805463.9,108648.9409
51,51,FL25,Terra Ceia Preserve State Park,State,FL,Uniform Multiple Use,Florida Department of Environmental Protection,Site-Specific Management Plan,Natural Heritage,Natural Heritage and Sustainable Production,Commercial and Recreational Fishing Restricted,Ecosystem,Permanent,Year-round,1998,Unrestricted,Unrestricted,1,IV,IUCN MPA,Interface,https://www.floridastateparks.org/park/Terra-Ceia,555585665,FL25,State Park,7.76402,0.161773384,2,0,-82.56218257,27.59787727,2972,0.725562676,0.000706972,9885586.938,86153.66214
52,52,FL26,Yellow River Marsh Preserve State Park,State,FL,Uniform Multiple Use,Florida Department of Environmental Protection,Site-Specific Management Plan,Natural Heritage,Natural Heritage and Sustainable Production,Commercial and Recreational Fishing Restricted,Ecosystem,Permanent,Year-round,1970,,,1,IV,IUCN MPA,Marine,https://www.floridastateparks.org/park/yellow-river,555585667,FL26,State Park,3.38419,3.38418889,100,0,-87.06739547,30.48661279,213,0.300528805,0.000316952,4558438.379,35764.78317
53,53,FL3,Big Bend Seagrasses Aquatic Preserve,State,FL,Uniform Multiple Use,Florida Department of Environmental Protection,Site-Specific Management Plan,Natural Heritage,Natural Heritage,No Site Restrictions,Ecosystem,Permanent,Year-round,1985,Unrestricted,Unrestricted,1,IV,IUCN MPA,Marine,https://floridadep.gov/coastal/sites/bigbend/,0,FL3,Aquatic Preserve,2764.44,2744.186768,99,0,-83.43685127,29.50339978,86253,22.3641122,0.256324865,3649745906,2663285.75
54,54,FL4,Boca Ciega Bay Aquatic Preserve,State,FL,Uniform Multiple Use,Florida Department of Environmental Protection,Site-Specific Management Plan,Natural Heritage,Natural Heritage,No Site Restrictions,Ecosystem,Permanent,Year-round,1969,Restricted,Restricted,1,IV,IUCN MPA,Marine,https://floridadep.gov/rcp/aquatic-preserve/locations/pinellas-county-aquatic-preserves,0,FL4,Aquatic Preserve,74.5517,73.05915833,98,0,-82.72812446,27.75887738,8325,2.62577042,0.006795536,95120677.9,312088.526
55,55,FL5,Cape Haze Aquatic Preserve,State,FL,Uniform Multiple Use,Florida Department of Environmental Protection,Site-Specific Management Plan,Natural Heritage,Natural Heritage,No Site Restrictions,Ecosystem,Permanent,Year-round,1975,Unrestricted,Unrestricted,1,IV,IUCN MPA,Mixed,https://floridadep.gov/coastal/sites/capehaze/,555586756,FL5,Aquatic Preserve,61.6504,45.59809113,74,0,-82.19192411,26.79785407,1026,0.561452879,0.005573595,77378372.3,66420.3366
56,56,FL500,Banana River Aquatic Preserve,State,FL,Uniform Multiple Use,Florida Department of Environmental Protection,Site-Specific Management Plan,Natural Heritage,Natural Heritage,No Site Restrictions,Ecosystem,Permanent,Year-round,1970,,,1,IV,IUCN MPA,Marine,https://floridadep.gov/coastal/sites/banana/,555586765,FL500,Aquatic Preserve,105.804,104.0671387,98,0,-80.64146552,28.30686836,4656,1.472930909,0.009697705,136496538.5,177276.7663
57,57,FL501,Biscayne Bay Aquatic Preserve,State,FL,Zoned w/No Take Areas,Florida Department of Environmental Protection,Site-Specific Management Plan,Natural Heritage,Natural Heritage,No Site Restrictions,Ecosystem,Permanent,Year-round,1974,Unrestricted,Unrestricted,1,IV,IUCN MPA,Marine,https://floridadep.gov/coastal/sites/biscayne/,0,FL501,Aquatic Preserve,279.831,274.9147949,98,0,-80.22767564,25.62200035,9025,4.905391977,0.025044353,344198799.7,575040.7918
58,58,FL502,Cockroach Bay Preserve State Park,State,FL,Uniform Multiple Use,Florida Department of Environmental Protection,Site-Specific Management Plan,Natural Heritage,Natural Heritage and Sustainable Production,Commercial and Recreational Fishing Restricted,Ecosystem,Permanent,Year-round,1997,,,1,IV,IUCN MPA,Mixed,https://www.floridastateparks.org/park/cockroach-bay,555585658,FL502,State Park,2.49764,0.687532246,28,0,-82.49319488,27.70905549,5710,0.934300581,0.000227646,3186201.455,109782.4772
59,59,FL503,Coupon Bight Aquatic Preserve,State,FL,Zoned Multiple Use,Florida Department of Environmental Protection,Site-Specific Management Plan,Natural Heritage,Natural Heritage,No Site Restrictions,Ecosystem,Permanent,Year-round,1969,,,1,IV,IUCN MPA,Marine,https://floridadep.gov/coastal/sites/coupon/,555586757,FL503,Aquatic Preserve,18.7856,18.77845764,100,0,-81.3661414,24.63657355,1267,0.618139531,0.001667754,22736564.53,71484.86671
60,60,FL505,Estero Bay Preserve State Park,State,FL,Uniform Multiple Use,Florida Department of Environmental Protection,Site-Specific Management Plan,Natural Heritage,Natural Heritage,Commercial and Recreational Fishing Restricted,Ecosystem,Permanent,Year-round,1987,,,1,IV,IUCN MPA,Interface,https://www.floridastateparks.org/park/estero-bay,666646,FL505,State Park,45.9758,1.533248067,3,0,-81.89151548,26.46455661,10219,2.157169825,0.004144401,57369274.06,254580.7219
61,61,FL506,Fort Clinch State Park Aquatic Preserve,State,FL,Uniform Multiple Use,Florida Department of Environmental Protection,Site-Specific Management Plan,Natural Heritage,Natural Heritage and Cultural Heritage,No Site Restrictions,Ecosystem,Permanent,Year-round,1970,Unrestricted,Unrestricted,1,IV,IUCN MPA,Marine,https://floridadep.gov/rcp/aquatic-preserve/locations/nassau-river-st-johns-river-marshes-and-ft-clinch-aquatic-preserves,555586766,FL506,Aquatic Preserve,30.5777,30.51469231,100,0,-81.41697399,30.69362615,508,0.361603908,0.002869528,41352365.88,42756.04555
62,62,FL507,Guana River Marsh Aquatic Preserve,State,FL,Zoned Multiple Use,Florida Department of Environmental Protection,Site-Specific Management Plan,Natural Heritage,"Natural Heritage, Cultural Heritage and Sustainable Production",No Site Restrictions,Ecosystem,Permanent,Year-round,1984,Unrestricted,Unrestricted,1,IV,IUCN MPA,Mixed,https://floridadep.gov/coastal/sites/gtm/guana.htm,555586767,FL507,Aquatic Preserve,166.183,113.8264771,68,0,-81.32308755,30.06773999,4229,1.130381249,0.01549397,221872545.9,136159.6089
63,63,FL508,Indian River Lagoon Preserve State Park,State,FL,Uniform Multiple Use,Florida Department of Environmental Protection,Site-Specific Management Plan,Natural Heritage,Natural Heritage,Commercial and Recreational Fishing Restricted,Ecosystem,Permanent,Year-round,2000,,,1,IV,IUCN MPA,Mixed,https://www.floridastateparks.org/park/indian-river-lagoon,555585660,FL508,State Park,2.29112,0.153832912,7,0,-80.50216078,27.94261275,5048,0.230328899,0.000209272,2935354.982,27349.61628
64,64,FL509,Indian River - Malabar to Vero Beach Aquatic Preserve,State,FL,Uniform Multiple Use,Florida Department of Environmental Protection,Site-Specific Management Plan,Natural Heritage,Natural Heritage,No Site Restrictions,Ecosystem,Permanent,Year-round,1969,Unrestricted,Unrestricted,1,IV,IUCN MPA,Marine,https://floridadep.gov/rcp/aquatic-preserve/locations/indian-river-malabar-vero-beach-aquatic-preserve,555586768,FL509,Aquatic Preserve,111.637,106.8652649,96,0,-80.48315575,27.87752431,11826,2.68861151,0.01019151,142874465.2,321163.4999
65,65,FL510,Indian River - Vero Beach to Ft. Pierce Aquatic Preserve,State,FL,Uniform Multiple Use,Florida Department of Environmental Protection,Site-Specific Management Plan,Natural Heritage,Natural Heritage and Sustainable Production,No Site Restrictions,Ecosystem,Permanent,Year-round,1969,Unrestricted,Unrestricted,1,IV,IUCN MPA,Mixed,https://floridadep.gov/coastal/sites/indian-vero/,555586769,FL510,Aquatic Preserve,39.0147,35.20405197,90,0,-80.34063089,27.54712462,2492,0.759386835,0.003550937,49629827.2,90602.88423
66,66,FL511,Jensen Beach to Jupiter Inlet Aquatic Preserve,State,FL,Zoned Multiple Use,Florida Department of Environmental Protection,Site-Specific Management Plan,Natural Heritage,Natural Heritage and Sustainable Production,No Site Restrictions,Ecosystem,Permanent,Year-round,1969,,,1,IV,IUCN MPA,Marine,https://floridadep.gov/coastal/sites/jensen/,555586770,FL511,Aquatic Preserve,93.786,91.31716919,97,0,-80.22928783,27.28318923,10350,2.453361866,0.008515608,118734970.3,292518.8015
67,67,FL512,Lignumvitae Key Aquatic Preserve,State,FL,Zoned Multiple Use,Florida Department of Environmental Protection,Site-Specific Management Plan,Natural Heritage,Natural Heritage,No Site Restrictions,Ecosystem,Permanent,Year-round,1969,Unrestricted,Unrestricted,1,IV,IUCN MPA,Marine,https://floridadep.gov/rcp/aquatic-preserve/locations/lignumvitae-key-aquatic-preserve,555586771,FL512,Aquatic Preserve,33.6311,33.62861252,100,0,-80.67780683,24.91853299,358,0.450367247,0.002992504,40889707.93,52662.80983
68,68,FL513,Loxahatchee River - Lake Worth Creek Aquatic Preserve,State,FL,Uniform Multiple Use,Florida Department of Environmental Protection,Site-Specific Management Plan,Natural Heritage,Natural Heritage,No Site Restrictions,Ecosystem,Permanent,Year-round,1970,,,1,IV,IUCN MPA,Mixed,https://floridadep.gov/coastal/sites/loxahatchee/,555586772,FL513,Aquatic Preserve,8.25113,5.939728737,72,0,-80.11429491,26.94874538,3827,0.737406398,0.000747012,10385495.13,86833.12777
69,69,FL514,Mosquito Lagoon Aquatic Preserve,State,FL,Zoned Multiple Use,Florida Department of Environmental Protection,Site-Specific Management Plan,Natural Heritage,Natural Heritage,No Site Restrictions,Ecosystem,Permanent,Year-round,1970,Unrestricted,Unrestricted,1,IV,IUCN MPA,Mixed,https://floridadep.gov/rcp/aquatic-preserve/locations/mosquito-lagoon-aquatic-preserve,555586773,FL514,Aquatic Preserve,19.2534,6.012829781,31,0,-80.87212339,28.97344724,174,0.202714378,0.001775963,25156229.1,24083.54066
70,70,FL515,Nassau River - St. Johns River Marshes Aquatic Preserve,State,FL,Uniform Multiple Use,Florida Department of Environmental Protection,Site-Specific Management Plan,Natural Heritage,Natural Heritage,No Site Restrictions,Ecosystem,Permanent,Year-round,1969,,,1,IV,IUCN MPA,Mixed,https://floridadep.gov/rcp/aquatic-preserve/locations/nassau-river-st-johns-river-marshes-and-ft-clinch-aquatic-preserves,555586774,FL515,Aquatic Preserve,286.158,130.9299927,46,0,-81.46663619,30.49223537,2454,1.624666684,0.02679841,385387709.2,195822.6245
71,71,FL516,"North Fork, St. Lucie Aquatic Preserve",State,FL,Uniform Multiple Use,Florida Department of Environmental Protection,Site-Specific Management Plan,Natural Heritage,Natural Heritage,No Site Restrictions,Ecosystem,Permanent,Year-round,1984,,,1,IV,IUCN MPA,Mixed,https://floridadep.gov/coastal/sites/northfork/,555586775,FL516,Aquatic Preserve,20.4626,9.409356117,46,0,-80.31656624,27.23902172,603,0.498294183,0.001857848,25902717.88,60036.18023
72,72,FL517,Crystal River Preserve State Park,State,FL,Uniform Multiple Use,Florida Department of Environmental Protection,Site-Specific Management Plan,Natural Heritage,Natural Heritage and Sustainable Production,Commercial and Recreational Fishing Restricted,Ecosystem,Permanent,Year-round,1974,,,1,IV,IUCN MPA,Interface,https://www.floridastateparks.org/park/Crystal-River-Preserve,666642,FL517,State Park,113.695,3.711086988,3,0,-82.64972133,28.80568686,100702,10.76679956,0.010475693,148220956.6,1276377.777
73,73,FL518,Pellicer Creek Aquatic Preserve,State,FL,Zoned Multiple Use,Florida Department of Environmental Protection,Site-Specific Management Plan,Natural Heritage,Natural Heritage,No Site Restrictions,Ecosystem,Permanent,Year-round,1970,,,1,IV,IUCN MPA,Mixed,https://floridadep.gov/coastal/sites/gtm/pellicer.htm,555586776,FL518,Aquatic Preserve,2.63766,0.642246485,24,0,-81.256653,29.66590009,127,0.149911526,0.000244948,3493117.164,17617.02123
74,74,FL519,Pumpkin Hill Creek Preserve State Park,State,FL,Uniform Multiple Use,Florida Department of Environmental Protection,Site-Specific Management Plan,Natural Heritage,Natural Heritage,Commercial and Recreational Fishing Restricted,Ecosystem,Permanent,Year-round,1994,,,1,IV,IUCN MPA,Interface,https://www.floridastateparks.org/park/Pumpkin-Hill,555585661,FL519,State Park,16.5557,0.002619089,0,0,-81.51457117,30.47009089,1429,0.579552493,0.001550072,22286432.41,68942.80663
75,75,FL521,Terra Ceia Aquatic Preserve,State,FL,Uniform Multiple Use,Florida Department of Environmental Protection,Site-Specific Management Plan,Natural Heritage,Natural Heritage,No Site Restrictions,Ecosystem,Permanent,Year-round,1983,Unrestricted,Unrestricted,1,IV,IUCN MPA,Marine,https://floridadep.gov/rcp/aquatic-preserve/locations/terra-ceia-aquatic-preserve,555586758,FL521,Aquatic Preserve,85.8848,85.03701019,99,0,-82.62135777,27.5809803,5733,1.540789153,0.007819271,109319482.6,180825.5195
76,76,FL522,Tomoka Marsh Aquatic Preserve,State,FL,Zoned Multiple Use,Florida Department of Environmental Protection,Site-Specific Management Plan,Natural Heritage,Natural Heritage,No Site Restrictions,Ecosystem,Permanent,Year-round,1969,,,1,IV,IUCN MPA,Mixed,https://floridadep.gov/coastal/sites/tomoka/,555586777,FL522,Aquatic Preserve,20.1197,9.27383709,46,0,-81.09624099,29.37346485,2642,0.982986555,0.001863134,26493943.21,119535.4203
77,77,FL524,Yellow River Marsh Aquatic Preserve,State,FL,Zoned Multiple Use,Florida Department of Environmental Protection,Site-Specific Management Plan,Natural Heritage,Natural Heritage,No Site Restrictions,Ecosystem,Permanent,Year-round,1970,Unrestricted,Unrestricted,1,IV,IUCN MPA,Mixed,https://floridadep.gov/rcp/aquatic-preserve/locations/yellow-river-marsh-aquatic-preserve,555586759,FL524,Aquatic Preserve,60.4555,31.28005981,52,0,-86.99723884,30.53277893,1005,0.566920769,0.005663883,81482759.27,68167.05279
78,78,FL526,Rookery Bay Aquatic Preserve,State,FL,Uniform Multiple Use,Florida Department of Environmental Protection,Site-Specific Management Plan,Natural Heritage,Natural Heritage,No Site Restrictions,Ecosystem,Permanent,Year-round,1975,Unrestricted,Unrestricted,1,IV,IUCN MPA,Mixed,https://floridadep.gov/coastal/sites/rookery/rookery_bay.htm,555586901,FL526,Aquatic Preserve,236.005,123.7031555,52,0,-81.70839464,25.86679841,162,0.958714604,0.021181459,291925977,113377.2216
79,79,FL6,Cape Romano - Ten Thousand Islands Aquatic Preserve,State,FL,Uniform Multiple Use,Florida Department of Environmental Protection,Site-Specific Management Plan,Natural Heritage,Natural Heritage,No Site Restrictions,Ecosystem,Permanent,Year-round,1969,Unrestricted,Unrestricted,1,IV,IUCN MPA,Mixed,https://floridadep.gov/coastal/sites/rookery/cape_romano.htm,555586760,FL6,Aquatic Preserve,209.168,112.630455,54,0,-81.56130448,25.89156145,1012,0.818212286,0.018762565,258449712.7,95688.20932
80,80,FL7,Charlotte Harbor Preserve State Park,State,FL,Uniform Multiple Use,Florida Department of Environmental Protection,Site-Specific Management Plan,Natural Heritage,Natural Heritage,Commercial and Recreational Fishing Restricted,Ecosystem,Permanent,Year-round,1970,,,1,IV,IUCN MPA,Mixed,https://www.floridastateparks.org/park/charlotte-harbor,666639,FL7,State Park,183.961,11.04724121,6,0,-82.13611044,26.8472668,33803,7.054870809,0.016630209,230863782.3,835136.7995
81,81,FL750,Amelia Island State Park,State,FL,Uniform Multiple Use,Florida Department of Environmental Protection,Site-Specific Management Plan,Natural Heritage,Natural Heritage,Commercial and Recreational Fishing Restricted,Ecosystem,Permanent,Year-round,1983,Unrestricted,Unrestricted,1,IV,IUCN MPA,Interface,https://www.stateparks.com/amelia_island_state_park_in_florida.html,555585996,FL750,State Park,0.81955,0.033481117,4,0,-81.43953626,30.52136142,243,0.058518156,7.67729E-05,1104397.559,6956.84455
82,82,FL751,Anastasia State Park,State,FL,Uniform Multiple Use,Florida Department of Environmental Protection,Site-Specific Management Plan,Natural Heritage,Natural Heritage and Sustainable Production,Commercial and Recreational Fishing Restricted,Ecosystem,Permanent,Year-round,1949,,,1,IV,IUCN MPA,Mixed,https://www.floridastateparks.org/park/anastasia,555585997,FL751,State Park,6.53184,1.49114418,23,0,-81.27905266,29.88547176,395,0.198546062,0.000607943,8689095.391,23877.43404
83,83,FL752,Anclote Key State Park,State,FL,Uniform Multiple Use,Florida Department of Environmental Protection,Site-Specific Management Plan,Natural Heritage,Natural Heritage and Sustainable Production,Commercial and Recreational Fishing Restricted,Ecosystem,Permanent,Year-round,1960,Unrestricted,Unrestricted,1,IV,IUCN MPA,Marine,https://www.floridastateparks.org/park/Anclote-Key,555585657,FL752,State Park,49.5977,48.29895782,97,0,-82.84013727,28.17721631,76,0.488574827,0.004540299,63827300.45,59453.69413
84,84,FL753,Avalon State Park,State,FL,Zoned Multiple Use,Florida Department of Environmental Protection,Site-Specific Management Plan,Natural Heritage,Natural Heritage and Sustainable Production,Commercial and Recreational Fishing Restricted,Ecosystem,Permanent,Year-round,1985,,Unrestricted,1,IV,IUCN MPA,Interface,https://www.floridastateparks.org/park/avalon,555585998,FL753,State Park,2.63447,0.022680279,1,0,-80.3246037,27.54386611,425,0.160111712,0.00023977,3351061.311,18924.74299
85,85,FL754,Bahia Honda State Park,State,FL,Uniform Multiple Use,Florida Department of Environmental Protection,Site-Specific Management Plan,Natural Heritage,Natural Heritage and Sustainable Production,Commercial and Recreational Fishing Restricted,Ecosystem,Permanent,Year-round,1961,Unrestricted,Unrestricted,1,IV,IUCN MPA,Interface,https://www.floridastateparks.org/park/Bahia-Honda,22983,FL754,State Park,1.99635,0.097872369,5,0,-81.26217967,24.66640022,456,0.146424388,0.000177275,2417380.48,16794.92322
86,86,FL755,Bald Point State Park,State,FL,Uniform Multiple Use,Florida Department of Environmental Protection,Site-Specific Management Plan,Natural Heritage,Natural Heritage and Sustainable Production,Commercial and Recreational Fishing Restricted,Ecosystem,Permanent,Year-round,1999,,,1,IV,IUCN MPA,Interface,https://www.floridastateparks.org/park/Bald-Point,555585999,FL755,State Park,19.805,0.580991983,3,0,-84.35803221,29.92934768,3339,0.399498208,0.001844139,26369184.09,47984.78987
87,87,FL756,Big Talbot Island State Park,State,FL,Uniform Multiple Use,Florida Department of Environmental Protection,Site-Specific Management Plan,Natural Heritage,Natural Heritage and Sustainable Production,Commercial and Recreational Fishing Restricted,Ecosystem,Permanent,Year-round,1982,,,1,IV,IUCN MPA,Interface,https://www.floridastateparks.org/park/Big-Talbot-Island,555586778,FL756,State Park,6.94697,0.168984368,2,0,-81.43983189,30.48013697,1226,0.523427939,0.000650495,9353569.234,63812.33237
88,88,FL757,Big Lagoon State Park,State,FL,Uniform Multiple Use,Florida Department of Environmental Protection,Site-Specific Management Plan,Natural Heritage,Natural Heritage and Sustainable Production,Commercial and Recreational Fishing Restricted,Ecosystem,Permanent,Year-round,1977,,,1,IV,IUCN MPA,Mixed,https://www.floridastateparks.org/park/big-lagoon,555586000,FL757,State Park,2.98318,0.223939881,8,0,-87.41020818,30.31507355,327,0.081974026,0.000278865,4003075.691,9583.908996
89,89,FL758,Bill Baggs Cape Florida State Park,State,FL,Uniform Multiple Use,Florida Department of Environmental Protection,Site-Specific Management Plan,Natural Heritage,Natural Heritage and Sustainable Production,Commercial and Recreational Fishing Restricted,Ecosystem,Permanent,Year-round,1966,Unrestricted,Unrestricted,1,IV,IUCN MPA,Mixed,https://www.floridastateparks.org/park/Cape-Florida,22991,FL758,State Park,1.75398,0.129366159,7,0,-80.1595871,25.67575293,83,0.056740297,0.000157048,2159359.004,6688.88915
90,90,FL759,Bulow Creek State Park,State,FL,Uniform Multiple Use,Florida Department of Environmental Protection,Site-Specific Management Plan,Natural Heritage,Natural Heritage and Sustainable Production,Commercial and Recreational Fishing Restricted,Ecosystem,Permanent,Year-round,1981,Unrestricted,,1,IV,IUCN MPA,Interface,https://www.floridastateparks.org/park/bulow-creek,666638,FL759,State Park,21.2036,0.172245532,1,0,-81.11623205,29.38133275,1146,0.704760908,0.001963655,27925550.42,84533.56929
91,91,FL760,Bulow Plantation Ruins Historic State Park,State,FL,Uniform Multiple Use,Florida Department of Environmental Protection,Site-Specific Management Plan,Natural Heritage,Natural Heritage and Sustainable Production,Commercial and Recreational Fishing Restricted,Ecosystem,Permanent,Year-round,1945,,,1,IV,IUCN MPA,Interface,https://www.floridastateparks.org/park/Bulow-Plantation,555586907,FL760,Historic State Park,0.600993,0.002368165,0,0,-81.142673,29.43455215,79,0.054600683,5.56865E-05,792347.7324,6336.839423
92,92,FL761,Caladesi Island State Park,State,FL,Uniform Multiple Use,Florida Department of Environmental Protection,Site-Specific Management Plan,Natural Heritage,Natural Heritage and Sustainable Production,Commercial and Recreational Fishing Restricted,Ecosystem,Permanent,Year-round,1966,Unrestricted,Restricted,1,IV,IUCN MPA,Mixed,https://www.floridastateparks.org/park/Caladesi-Island,22990,FL761,State Park,10.0345,7.428272724,74,0,-82.81393694,28.02149589,298,0.156120844,0.000917267,12876202.99,19131.31995
93,93,FL762,Camp Helen State Park,State,FL,Uniform Multiple Use,Florida Department of Environmental Protection,Site-Specific Management Plan,Natural Heritage,Natural Heritage and Sustainable Production,Commercial and Recreational Fishing Restricted,Ecosystem,Permanent,Year-round,1996,Unrestricted,Unrestricted,1,IV,IUCN MPA,Interface,https://www.floridastateparks.org/park/Camp-Helen,555586005,FL762,State Park,0.74502,0.023697715,3,0,-85.99233849,30.27307852,491,0.086968347,6.9614E-05,998873.1934,10229.99903
94,94,FL763,Cayo Costa State Park,State,FL,Uniform Multiple Use,Florida Department of Environmental Protection,Site-Specific Management Plan,Natural Heritage,Natural Heritage and Sustainable Production,Commercial and Recreational Fishing Restricted,Ecosystem,Permanent,Year-round,1976,Unrestricted,Unrestricted,1,IV,IUCN MPA,Mixed,https://www.floridastateparks.org/park/Cayo-Costa,29731,FL763,State Park,9.77071,0.800929248,8,0,-82.23866983,26.65757609,5686,1.205742995,0.000882247,12233178.27,143871.7778
95,95,FL765,Cedar Key Scrub State Reserve,State,FL,Uniform Multiple Use,Florida Department of Environmental Protection,Site-Specific Management Plan,Natural Heritage,Natural Heritage and Sustainable Production,Commercial and Recreational Fishing Restricted,Ecosystem,Permanent,Year-round,1978,,,1,IV,IUCN MPA,Mixed,https://www.floridastateparks.org/park/Cedar-Key-Scrub,555586066,FL765,State Reserve,19.9399,2.541114807,13,0,-83.02955049,29.19264572,138,0.430149716,0.001843212,26164318.1,51208.3558
96,96,FL766,Collier-Seminole State Park,State,FL,Uniform Multiple Use,Florida Department of Environmental Protection,Site-Specific Management Plan,Natural Heritage,Natural Heritage and Sustainable Production,Commercial and Recreational Fishing Restricted,Ecosystem,Permanent,Year-round,1944,Unrestricted,Unrestricted,1,IV,IUCN MPA,Mixed,https://www.floridastateparks.org/park/Collier-Seminole,22994,FL766,State Park,29.5461,1.690138102,6,0,-81.60043176,25.97564576,108,0.390967303,0.002652211,36559503.43,45618.73776
97,97,FL767,Crystal River State Archaeological Site,State,FL,Uniform Multiple Use,Florida Department of Environmental Protection,Site-Specific Management Plan,Natural Heritage,Natural Heritage and Sustainable Production,Commercial and Recreational Fishing Restricted,Ecosystem,Permanent,Year-round,1962,,,1,IV,IUCN MPA,Interface,https://www.floridastateparks.org/park/Crystal-River-Archaeological,555583135,FL767,State Archaeological Site,0.250057,0.005943871,2,0,-82.63681591,28.90734526,528,0.056339192,2.3051E-05,326307.1133,6656.607204
98,98,FL805,San Pedro Underwater Archaeological Preserve State Park,State,FL,No Take,Florida Department of Environmental Protection,Site-Specific Management Plan,Natural Heritage,"Natural Heritage, Cultural Heritage and Sustainable Production",Commercial and Recreational Fishing Prohibited,Ecosystem,Permanent,Year-round,1989,Restricted,Restricted,1,Ia,IUCN MPA,Marine,https://www.floridastateparks.org/park/San-Pedro,555547377,FL805,State Park,2.61639,2.616391182,100,2.616391182,-80.67666783,24.85500067,180,0.054179485,0.000232688,3177822.461,6321.48266
99,99,GA35,Satilla River Marsh Island Natural Area,State,GA,No Access,Georgia Department of Natural Resources,Non-MPA Programmatic Habitat Management Plan,Natural Heritage,Natural Heritage,Commercial and Recreational Fishing Prohibited,Ecosystem,Permanent,Year-round,1998,Unrestricted,Unrestricted,1,Ia,IUCN MPA,Mixed,https://www.protectedplanet.net/satilla-river-marsh-island-na-state-natural-area-gadnr,0,GA35,Natural Area,0.178762,0.09712822,54,0.178761661,-81.48976067,30.96760955,21,0.018883128,1.68236E-05,243135.457,2205.005611
100,100,GA36,Pelican Spit Natural Area,State,GA,No Access,Georgia Department of Natural Resources,Non-MPA Programmatic Habitat Management Plan,Natural Heritage,Natural Heritage,Restrictions Unknown,Ecosystem,Permanent,Year-round,1998,,,1,Ia,IUCN MPA,Marine,https://georgiawildlife.com/give-beach-nesting-birds-their-space,0,GA36,Natural Area,0.584555,0.58455497,100,0.58455497,-81.29574484,31.21013722,21,0.034655043,5.51542E-05,799127.7637,4021.24608
101,101,GA45,St. Catherines Bar Natural Area,State,GA,No Access,Georgia Department of Natural Resources,MPA Programmatic Management Plan,Natural Heritage,Natural Heritage,Commercial and Recreational Fishing Prohibited,Ecosystem,Permanent,Year-round,1998,,,1,Ia,IUCN MPA,Marine,http://www.stcatherinesisland.org/,0,GA45,Natural Area,1.15057,1.150568843,100,1.150568843,-81.11906842,31.69188349,44,0.060486725,0.000109119,1589169.898,7330.330845
102,102,GA54,Egg Island Bar Natural Area,State,GA,No Access,Georgia Department of Natural Resources,MPA Programmatic Management Plan,Natural Heritage,Natural Heritage,Commercial and Recreational Fishing Prohibited,Ecosystem,Permanent,Year-round,1998,,,1,Ia,IUCN MPA,Marine,https://www.protectedplanet.net/egg-island-bar-state-natural-area,0,GA54,Natural Area,0.919767,0.919766665,100,0.919766665,-81.27129416,31.30603726,30,0.047321504,8.68704E-05,1259943.529,5581.109249
103,103,GU11,Sasa Bay Marine Preserve,Territorial,US-GU,No Take,Guam Department of Agriculture,MPA Programmatic Management Plan,Natural Heritage,Natural Heritage,Commercial and Recreational Fishing Prohibited,Ecosystem,Permanent,Year-round,1997,,Restricted,1,IV,IUCN MPA,Mixed,https://www.guamvisitorsbureau.com/docs/resources/press-kits/guam-sample-itineraries/tour-series-marine-preserves.pdf,0,GU11,Marine Preserve,3.13652,1.930774093,62,3.136524439,144.6772619,13.45027038,45,0.066794361,0.000260247,3315931.4,7534.135695
104,104,HI10,Paiko Lagoon Wildlife Sanctuary,State,HI,No Access,Hawaii Department of Land and Natural Resources,Site-Specific Management Plan,Natural Heritage,Natural Heritage,Commercial and Recreational Fishing Prohibited,Focal Resource,Permanent,Year-round,1981,,,1,Ia,IUCN MPA,Marine,http://dlnr.hawaii.gov/dar/fishing/fishing-regulations/regulated-areas/other-regulated-fishing-areas/#paiko-lagoon-wildlife-sanctuary-oahu,999922,HI10,Wildlife Sanctuary,0.115707,0.113178581,98,0.115706779,-157.7249551,21.28273445,101,0.017940596,1.00206E-05,133263.9883,2045.401723
105,105,HI11,Ahihi-Kinau Natural Area Reserve,State,HI,No Impact,Hawaii Department of Land and Natural Resources,Site-Specific Management Plan,Natural Heritage,Natural Heritage,Commercial and Recreational Fishing Prohibited,Ecosystem,Permanent,Year-round,1973,Prohibited,Prohibited,1,Ia,IUCN MPA,Mixed,http://dlnr.hawaii.gov/dar/fishing/fishing-regulations/regulated-areas/other-regulated-fishing-areas/#ahihi-kinau-natural-area-reserve-maui,21038,HI11,Natural Area Reserve,8.40364,3.252973318,39,8.403644562,-156.4311692,20.60654177,139,0.14624702,0.000724503,9591749.836,16843.27045
106,106,HI13,Waikiki Marine Life Conservation District,State,HI,No Take,Hawaii Department of Land and Natural Resources,MPA Programmatic Management Plan,Natural Heritage,Sustainable Production,Commercial and Recreational Fishing Prohibited,Focal Resource,Permanent,Year-round,1988,Unrestricted,Unrestricted,1,Ia,IUCN MPA,Marine,http://dlnr.hawaii.gov/dar/marine-managed-areas/hawaii-marine-life-conservation-districts/oahu-waikiki/,0,HI13,Marine Life Conservation District,0.315539,0.312217504,99,0.31553942,-157.8249626,21.26756025,32,0.021820894,2.73239E-05,363343.9375,2527.927805
107,107,HI19,Honolua-Mokuleia Bay Marine Life Conservation District,State,HI,No Take,Hawaii Department of Land and Natural Resources,MPA Programmatic Management Plan,Natural Heritage,Natural Heritage,Commercial and Recreational Fishing Prohibited,Ecosystem,Permanent,Year-round,1978,Unrestricted,Unrestricted,1,Ia,IUCN MPA,Marine,http://dlnr.hawaii.gov/dar/marine-managed-areas/hawaii-marine-life-conservation-districts/maui-honolua-mokuleia/,0,HI19,Marine Life Conservation District,0.182953,0.176267907,96,0.182953089,-156.6409132,21.01375749,91,0.023992789,1.58156E-05,209950.8242,2759.959376
108,108,HI20,Hanauma Bay Marine Life Conservation District,Partnership,HI,No Impact,Hawaii Department of Land and Natural Resources,Site-Specific Management Plan,Natural Heritage,Natural Heritage and Cultural Heritage,Commercial and Recreational Fishing Prohibited,Ecosystem,Permanent,Year-round,1967,Unrestricted,Unrestricted,1,Ia,IUCN MPA,Marine,http://dlnr.hawaii.gov/dar/marine-managed-areas/hawaii-marine-life-conservation-districts/oahu-hanauma-bay/,21022,HI20,Marine Life Conservation District,0.409845,0.406844854,99,0.409845144,-157.6935715,21.2689248,133,0.029632143,3.54905E-05,471943.7539,3436.47327
109,109,HI22,Moku-o-loe Island (Coconut Island) Marine Laboratory Refuge,State,HI,No Access,Hawaii Department of Land and Natural Resources,MPA Programmatic Management Plan,Natural Heritage,Sustainable Production,Commercial and Recreational Fishing Prohibited,Focal Resource,Permanent,Year-round,1953,,,1,Ia,IUCN MPA,Marine,http://dlnr.hawaii.gov/dar/fishing/fishing-regulations/regulated-areas/regulated-fishing-areas-on-oahu/#coconut-island-hawaii-marine-laboratory-refuge,0,HI22,Science Reserve,0.297792,0.286334574,96,0.297791749,-157.7890211,21.43389328,476,0.063207182,2.58164E-05,343686.707,7292.918192
110,110,IL1,North Dunes Nature Preserve,State,IL,No Access,Illinois Department of Natural Resources,No Management Plan,Natural Heritage,Natural Heritage,Recreational Fishing Prohibited,Ecosystem,Permanent,Year-round,1988,,,1,Ia,IUCN MPA,Interface,https://www.dnr.illinois.gov/INPC/Pages/Area2LakeNorthDunes.aspx,0,IL1,Nature Preserve,3.27639,0.096110396,3,3.27638793,-87.80599896,42.46907118,77,0.104836961,0.000358433,6021497.922,14176.89358
111,111,IL2,Illinois Beach Nature Preserve,State,IL,No Access,Illinois Department of Natural Resources,No Management Plan,Natural Heritage,Natural Heritage,Recreational Fishing Prohibited,Ecosystem,Permanent,Year-round,1964,,,1,Ia,IUCN MPA,Mixed,https://www.dnr.illinois.gov/INPC/Pages/Area2LakeIllinoisBeach.aspx,0,IL2,Nature Preserve,4.48092,0.34127757,8,4.480922699,-87.81171905,42.40685996,23,0.093233568,0.000489721,8218922.457,12711.02066
112,112,MN13,Iona's Beach Scientific & Natural Area,State,MN,No Impact,Minnesota Department of Natural Resources,Non-MPA Programmatic Habitat Management Plan,Natural Heritage,Natural Heritage,Commercial and Recreational Fishing Prohibited,Ecosystem,Permanent,Year-round,2004,,,1,Ia,IUCN MPA,Marine,https://www.dnr.state.mn.us/snas/detail.html?id=sna01000,44443381,MN13,Scientific & Natural Area,0.0539314,0.05393137,100,0.05393137,-91.42205317,47.16825742,19,0.011207996,6.40158E-06,116685.9336,1582.075215
113,113,MN14,Sugarloaf Point Scientific & Natural Area,State,MN,No Impact,Minnesota Department of Natural Resources,MPA Programmatic Management Plan,Natural Heritage,Natural Heritage,Commercial and Recreational Fishing Prohibited,Ecosystem,Permanent,Year-round,1992,,,1,Ia,IUCN MPA,Mixed,https://www.dnr.state.mn.us/snas/detail.html?id=sna01069,0,MN14,Scientific & Natural Area,0.0359117,0.032400362,90,0.035911698,-90.98311137,47.48609585,45,0.013050936,4.2884E-06,78639.26172,1673.264911
114,114,MN15,Butterwort Cliffs Scientific & Natural Area,State,MN,No Impact,Minnesota Department of Natural Resources,MPA Programmatic Management Plan,Natural Heritage,Natural Heritage,Commercial and Recreational Fishing Prohibited,Ecosystem,Permanent,Year-round,1990,,,1,Ia,IUCN MPA,Interface,https://www.dnr.state.mn.us/snas/detail.html?id=sna01045,0,MN15,Scientific & Natural Area,0.216811,0.001970971,1,0.21681118,-90.47430153,47.71896981,54,0.06010562,2.6006E-05,479024.1133,7018.28322
115,115,MN16,Minnesota Point Pine Forest Scientific & Natural Area,State,MN,No Impact,Minnesota Department of Natural Resources,MPA Programmatic Management Plan,Natural Heritage,Natural Heritage,Commercial and Recreational Fishing Prohibited,Ecosystem,Permanent,Year-round,1996,,,1,Ia,IUCN MPA,Mixed,https://www.dnr.state.mn.us/snas/detail.html?id=sna02000,0,MN16,Scientific & Natural Area,0.0713935,0.022248309,31,0.071393453,-92.03574233,46.71753261,38,0.02273392,8.40326E-06,151887.4727,3037.273802
116,116,MP1,Bird Island Marine Sanctuary,Territorial,US-MP,No Impact,Mariana Islands Division of Fish and Wildlife,Site-Specific Management Plan,Natural Heritage,Natural Heritage and Sustainable Production,Commercial and Recreational Fishing Prohibited,Ecosystem,Permanent,Year-round,2001,Prohibited,Prohibited,1,Ia,IUCN MPA,Marine,http://www.dfw.gov.mp/Fisheries/BirdIsland.html,18716,MP1,Marine Sanctuary,1.47164,1.451372027,99,1.471637726,145.8169445,15.25483295,937,0.097296397,0.000123094,1581094.309,10998.4447
117,117,MP2,Forbidden Island Marine Sanctuary,Territorial,US-MP,No Impact,Mariana Islands Division of Fish and Wildlife,Site-Specific Management Plan,Natural Heritage,Natural Heritage and Sustainable Production,Commercial and Recreational Fishing Prohibited,Ecosystem,Permanent,Year-round,2000,Prohibited,Prohibited,1,Ia,IUCN MPA,Marine,http://www.dfw.gov.mp/Fisheries/ForbiddenIsland.html,302157,MP2,Marine Sanctuary,2.53433,2.50479722,99,2.534329653,145.7878783,15.1549049,1223,0.152703111,0.000211885,2720323.465,17250.46838
118,118,MP5,Laulau Bay Sea Cucumber Reserve,Territorial,US-MP,No Take,Mariana Islands Division of Fish and Wildlife,MPA Programmatic Management Plan,Natural Heritage,Natural Heritage and Sustainable Production,Commercial and Recreational Fishing Prohibited,Focal Resource,Permanent,Year-round,2000,Restricted,Restricted,1,Ia,IUCN MPA,Marine,https://www.coris.noaa.gov/activities/habitat_assessment/cnmi.pdf,0,MP5,Reserve,1.96686,1.966855168,100,1.966855168,145.7539934,15.16133451,1206,0.198978437,0.000164433,2110999.869,22518.1564
119,119,MP7,Sasanhaya Fish Reserve,Territorial,US-MP,No Take,Mariana Islands Division of Fish and Wildlife,MPA Programmatic Management Plan,Natural Heritage,Natural Heritage and Cultural Heritage,Commercial and Recreational Fishing Prohibited,Ecosystem,Permanent,Year-round,1994,Prohibited,Restricted,1,Ia,IUCN MPA,Marine,http://www.dfw.gov.mp/Fisheries/Sasanhaya.html,0,MP7,Reserve,0.8441,0.844100416,100,0.844100416,145.1659638,14.12179399,256,0.045746064,7.02443E-05,897590.4492,5203.465583
120,120,NC607,Bald Head Island State Natural Area,State,NC,No Take,North Carolina Department of Environment and Natural Resources,MPA Programmatic Management Plan,Natural Heritage,Natural Heritage,Commercial and Recreational Fishing Prohibited,Ecosystem,Permanent,Year-round,1979,,,1,Ia,IUCN MPA,Mixed,https://www.baldheadisland.com/island,352762,NC607,State Natural Area,24.2123,7.758027077,32,24.21230698,-77.97152636,33.89063528,912,0.507158441,0.002353757,35137582.08,62422.41214
121,121,NC610,Theodore Roosevelt State Natural Area,State,NC,No Take,North Carolina Department of Environment and Natural Resources,MPA Programmatic Management Plan,Natural Heritage,Natural Heritage,Commercial and Recreational Fishing Prohibited,Ecosystem,Permanent,Year-round,1971,,,1,Ia,IUCN MPA,Interface,http://www.ncaquariums.com/pine-knoll-shores/plan-your-visit/helpful-hints/theodore-roosevelt-natural-area-nature-trails,352764,NC610,State Natural Area,1.25114,0.000155807,0,1.251138091,-76.83242998,34.69720505,226,0.056100269,0.000122801,1850887.238,6686.653937
122,122,FL768,Deer Lake State Park,State,FL,Uniform Multiple Use,Florida Department of Environmental Protection,Site-Specific Management Plan,Natural Heritage,Natural Heritage and Sustainable Production,Commercial and Recreational Fishing Restricted,Ecosystem,Permanent,Year-round,1996,Unrestricted,Unrestricted,1,IV,IUCN MPA,Interface,https://www.floridastateparks.org/park/deer-lake,555586009,FL768,State Park,8.14618,0.082941622,1,0,-86.06513549,30.31084478,83,0.16368443,0.000761463,10930237.12,19315.90359
123,123,FL769,Delnor-Wiggins Pass State Park,State,FL,Uniform Multiple Use,Florida Department of Environmental Protection,Site-Specific Management Plan,Natural Heritage,Natural Heritage and Sustainable Production,Commercial and Recreational Fishing Restricted,Ecosystem,Permanent,Year-round,1970,Unrestricted,Unrestricted,1,IV,IUCN MPA,Mixed,https://www.floridastateparks.org/park/Delnor-Wiggins,555586010,FL769,State Park,0.696288,0.128142238,18,0,-81.82812082,26.28163532,85,0.041630703,6.26662E-05,866091.1133,5035.472129
124,124,FL770,Don Pedro Island State Park,State,FL,Uniform Multiple Use,Florida Department of Environmental Protection,Site-Specific Management Plan,Natural Heritage,Natural Heritage and Sustainable Production,Commercial and Recreational Fishing Restricted,Ecosystem,Permanent,Year-round,1985,Unrestricted,Unrestricted,1,IV,IUCN MPA,Mixed,https://www.floridastateparks.org/park/Don-Pedro-Island,555586011,FL770,State Park,1.02542,0.075171754,7,0,-82.30272932,26.8487899,400,0.082333237,9.27491E-05,1288254.891,9739.977991
125,125,FL771,Econfina River State Park,State,FL,Uniform Multiple Use,Florida Department of Environmental Protection,Site-Specific Management Plan,Natural Heritage,Natural Heritage and Sustainable Production,Commercial and Recreational Fishing Restricted,Ecosystem,Permanent,Year-round,1987,,,1,IV,IUCN MPA,Interface,https://www.floridastateparks.org/park/econfina-river,555586013,FL771,State Park,18.4444,0.875835717,5,0,-83.9212848,30.06996033,135,0.275686186,0.001719881,24627304.96,32932.47129
126,126,FL773,Fakahatchee Strand State Preserve,State,FL,Uniform Multiple Use,Florida Department of Environmental Protection,Site-Specific Management Plan,Natural Heritage,Natural Heritage and Sustainable Production,Commercial and Recreational Fishing Restricted,Ecosystem,Permanent,Year-round,1974,,,1,IV,IUCN MPA,Interface,https://www.floridastateparks.org/park/Fakahatchee-Strand,666649,FL773,State Preserve,290.717,1.357869864,0,0,-81.42189574,26.02163675,14149,9.88177395,0.026106584,360008591.1,1165500.431
127,127,FL774,Faver-Dykes State Park,State,FL,Uniform Multiple Use,Florida Department of Environmental Protection,Site-Specific Management Plan,Natural Heritage,Natural Heritage and Sustainable Production,Commercial and Recreational Fishing Restricted,Ecosystem,Permanent,Year-round,1950,,,1,IV,IUCN MPA,Interface,https://www.floridastateparks.org/park/faver-dykes,666650,FL774,State Park,5.94663,0.008779601,0,0,-81.25723938,29.67279455,490,0.172857569,0.000552301,7877074.791,20827.58882
128,128,FL775,Fort Clinch State Park,State,FL,Uniform Multiple Use,Florida Department of Environmental Protection,Site-Specific Management Plan,Natural Heritage,Natural Heritage and Sustainable Production,Commercial and Recreational Fishing Restricted,Ecosystem,Permanent,Year-round,1935,Unrestricted,Unrestricted,1,IV,IUCN MPA,Interface,https://www.floridastateparks.org/park/Fort-Clinch,555586017,FL775,State Park,5.52028,0.208646521,4,0,-81.44130146,30.69515351,389,0.161044232,0.000518051,7465684.387,19260.50049
129,129,FL776,Fort George Island Cultural State Park,State,FL,Uniform Multiple Use,Florida Department of Environmental Protection,Site-Specific Management Plan,Natural Heritage,Natural Heritage and Sustainable Production,Commercial and Recreational Fishing Restricted,Ecosystem,Permanent,Year-round,1989,,,1,IV,IUCN MPA,Interface,https://www.floridastateparks.org/park/Fort-George-Island,555586779,FL776,Cultural State Park,2.53346,0.029528422,1,0,-81.43142298,30.42725425,1105,0.244962736,0.000237097,3407410.311,29572.4013
130,130,FL777,Fort Pierce Inlet State Park,State,FL,Uniform Multiple Use,Florida Department of Environmental Protection,Site-Specific Management Plan,Natural Heritage,Natural Heritage and Sustainable Production,Commercial and Recreational Fishing Restricted,Ecosystem,Permanent,Year-round,1963,Unrestricted,Unrestricted,1,IV,IUCN MPA,Mixed,https://www.floridastateparks.org/park/Fort-Pierce-Inlet,555586019,FL777,State Park,4.70211,1.407528639,30,0,-80.31350065,27.49169889,292,0.210831868,0.000427733,5974985.645,24919.07508
131,131,FL779,Fred Gannon Rocky Bayou State Park,State,FL,Uniform Multiple Use,Florida Department of Environmental Protection,Site-Specific Management Plan,Natural Heritage,Natural Heritage and Sustainable Production,Commercial and Recreational Fishing Restricted,Ecosystem,Permanent,Year-round,1966,,,1,IV,IUCN MPA,Interface,https://www.floridastateparks.org/park/rocky-bayou,555586020,FL779,State Park,1.47422,0.036373671,2,0,-86.42650275,30.49610334,112,0.05978102,0.000138064,1985571.121,7116.906176
132,132,FL781,Gasparilla Island State Park,State,FL,Uniform Multiple Use,Florida Department of Environmental Protection,Site-Specific Management Plan,Natural Heritage,Natural Heritage and Sustainable Production,Commercial and Recreational Fishing Restricted,Ecosystem,Permanent,Year-round,1983,Unrestricted,Unrestricted,1,IV,IUCN MPA,Interface,https://www.floridastateparks.org/park/Gasparilla-Island,555586022,FL781,State Park,0.513419,0.025930928,5,0,-82.26107345,26.73087134,409,0.088832186,4.6389E-05,643640.7109,10636.96319
133,133,FL782,Grayton Beach State Park,State,FL,Uniform Multiple Use,Florida Department of Environmental Protection,Site-Specific Management Plan,Natural Heritage,Natural Heritage and Sustainable Production,Commercial and Recreational Fishing Restricted,Ecosystem,Permanent,Year-round,1964,Unrestricted,Unrestricted,1,IV,IUCN MPA,Interface,https://www.floridastateparks.org/park/Grayton-Beach,0,FL782,State Park,9.03082,0.003306161,0,0,-86.15777814,30.33605844,595,0.293960293,0.000844374,12123483.65,34325.03486
134,134,FL784,Honeymoon Island State Park,State,FL,Uniform Multiple Use,Florida Department of Environmental Protection,Site-Specific Management Plan,Natural Heritage,Natural Heritage and Sustainable Production,Commercial and Recreational Fishing Restricted,Ecosystem,Permanent,Year-round,1974,Unrestricted,Restricted,1,IV,IUCN MPA,Mixed,https://www.floridastateparks.org/park/Honeymoon-Island,555586027,FL784,State Park,11.5286,9.555345535,83,0,-82.82864658,28.07493114,375,0.159184505,0.001054395,14808574.24,18937.10922
135,135,FL785,Hugh Taylor Birch State Park,State,FL,Uniform Multiple Use,Florida Department of Environmental Protection,Site-Specific Management Plan,Natural Heritage,Natural Heritage and Sustainable Production,Commercial and Recreational Fishing Restricted,Ecosystem,Permanent,Year-round,1941,,,1,IV,IUCN MPA,Interface,https://www.floridastateparks.org/park/Hugh-Taylor-Birch,555586029,FL785,State Park,0.71205,0.00951396,1,0,-80.10488038,26.14528573,127,0.041697048,6.40099E-05,883626.1641,5012.119475
136,136,FL787,John D. MacArthur Beach State Park,State,FL,Uniform Multiple Use,Florida Department of Environmental Protection,Site-Specific Management Plan,Natural Heritage,Natural Heritage and Sustainable Production,Commercial and Recreational Fishing Restricted,Ecosystem,Permanent,Year-round,1981,Unrestricted,Restricted,1,IV,IUCN MPA,Interface,https://www.floridastateparks.org/park/MacArthur-Beach,555586031,FL787,State Park,1.77767,0.033130322,2,0,-80.04281501,26.82626592,211,0.105928809,0.000160753,2232304.223,12618.63726
137,137,FL788,John Pennekamp Coral Reef State Park,State,FL,Uniform Multiple Use,Florida Department of Environmental Protection,Site-Specific Management Plan,Natural Heritage,Natural Heritage and Cultural Heritage,Commercial and Recreational Fishing Restricted,Ecosystem,Permanent,Year-round,1959,Restricted,Restricted,1,IV,IUCN MPA,Marine,https://www.floridastateparks.org/park/pennekamp,9299,FL788,State Park,256.191,242.2798767,95,0,-80.32668154,25.1790703,8131,1.465812927,0.02284453,312812915.7,171603.8113
138,138,FL789,John U. Lloyd Beach State Park,State,FL,Uniform Multiple Use,Florida Department of Environmental Protection,Site-Specific Management Plan,Natural Heritage,Natural Heritage and Sustainable Production,Commercial and Recreational Fishing Restricted,Ecosystem,Permanent,Year-round,1973,Unrestricted,Unrestricted,1,IV,IUCN MPA,Mixed,https://www.floridastateparks.org/mizell,555586032,FL789,State Park,1.26281,0.203562036,16,0,-80.11166497,26.07514673,406,0.089787284,0.000113453,1565221.441,10947.99152
139,139,FL790,Jonathan Dickinson State Park,State,FL,Uniform Multiple Use,Florida Department of Environmental Protection,Site-Specific Management Plan,Natural Heritage,Natural Heritage and Sustainable Production,Commercial and Recreational Fishing Restricted,Ecosystem,Permanent,Year-round,1947,,,1,IV,IUCN MPA,Interface,https://www.floridastateparks.org/park/Jonathan-Dickinson,666656,FL790,State Park,46.6721,0.624041855,1,0,-80.14138762,27.0039669,803,0.889701589,0.004227179,58793262.52,105594.0843
140,140,FL792,Lignumvitae Key Botanical State Park,State,FL,Uniform Multiple Use,Florida Department of Environmental Protection,Site-Specific Management Plan,Natural Heritage,"Natural Heritage, Cultural Heritage and Sustainable Production",Commercial and Recreational Fishing Restricted,Ecosystem,Permanent,Year-round,1971,Restricted,Restricted,1,IV,IUCN MPA,Marine,https://www.floridastateparks.org/park/Lignumvitae-Key,555583160,FL792,State Park,42.5956,40.36895752,95,0,-80.68468306,24.90382072,357,0.469991962,0.003789703,51776829.06,54884.49668
141,141,FL793,Little Talbot Island State Park,State,FL,Uniform Multiple Use,Florida Department of Environmental Protection,Site-Specific Management Plan,Natural Heritage,Natural Heritage and Sustainable Production,Commercial and Recreational Fishing Restricted,Ecosystem,Permanent,Year-round,1950,Unrestricted,Unrestricted,1,IV,IUCN MPA,Mixed,https://www.floridastateparks.org/park/Little-Talbot-Island,23034,FL793,State Park,7.17784,0.750989676,10,0,-81.41558171,30.471819,515,0.358768331,0.00067192,9658858.887,44571.98589
142,142,FL797,Mound Key Archaeological State Park,State,FL,Uniform Multiple Use,Florida Department of Environmental Protection,Site-Specific Management Plan,Natural Heritage,Natural Heritage and Sustainable Production,Commercial and Recreational Fishing Restricted,Ecosystem,Permanent,Year-round,1961,Unrestricted,Unrestricted,1,IV,IUCN MPA,Interface,https://www.floridastateparks.org/park/mound-key,555583138,FL797,State Park,0.700881,0.025695086,4,0,-81.86136454,26.42522791,375,0.077997153,6.3158E-05,873972.6348,9210.337736
143,143,FL798,Navarre Beach State Park,State,FL,Uniform Multiple Use,Florida Department of Environmental Protection,Site-Specific Management Plan,Natural Heritage,Natural Heritage and Sustainable Production,Commercial and Recreational Fishing Restricted,Ecosystem,Permanent,Year-round,1999,Unrestricted,Unrestricted,1,IV,IUCN MPA,Mixed,https://www.santarosa.fl.gov/parks/parkinfo.cfm?ParkID=8,555586761,FL798,State Park,0.61984,0.085530549,14,0,-86.85549542,30.38235637,40,0.043704991,5.79819E-05,832895.5117,5198.190446
144,144,FL799,Ochlockonee River State Park,State,FL,Uniform Multiple Use,Florida Department of Environmental Protection,Site-Specific Management Plan,Natural Heritage,Natural Heritage and Sustainable Production,Commercial and Recreational Fishing Restricted,Ecosystem,Permanent,Year-round,1970,,,1,IV,IUCN MPA,Interface,https://www.floridastateparks.org/park/Ochlockonee-River,555586045,FL799,State Park,1.56525,0.031191133,2,0,-84.48065054,30.00412065,109,0.064075487,0.000145859,2087192.418,7644.314082
145,145,FL8,Cockroach Bay Aquatic Preserve,State,FL,Uniform Multiple Use,Florida Department of Environmental Protection,Site-Specific Management Plan,Natural Heritage,Natural Heritage,No Site Restrictions,Ecosystem,Permanent,Year-round,1976,Restricted,Restricted,1,IV,IUCN MPA,Mixed,https://floridadep.gov/rcp/aquatic-preserve/locations/cockroach-bay-aquatic-preserve,555586762,FL8,Aquatic Preserve,18.4219,16.59056664,90,0,-82.49373433,27.67802352,7774,2.085484352,0.001678863,23495373.25,245234.8336
146,146,FL800,Oleta River State Park,State,FL,Uniform Multiple Use,Florida Department of Environmental Protection,Site-Specific Management Plan,Natural Heritage,Natural Heritage and Sustainable Production,Commercial and Recreational Fishing Restricted,Ecosystem,Permanent,Year-round,1980,,Unrestricted,1,IV,IUCN MPA,Mixed,https://www.floridastateparks.org/park/Oleta-River,555586046,FL800,State Park,4.19692,0.654945076,16,0,-80.13871061,25.91651012,586,0.158801656,0.000376548,5187932.082,18695.87801
147,147,FL801,Oscar Scherer State Park,State,FL,Uniform Multiple Use,Florida Department of Environmental Protection,Site-Specific Management Plan,Natural Heritage,Natural Heritage and Sustainable Production,Commercial and Recreational Fishing Restricted,Ecosystem,Permanent,Year-round,1956,,,1,IV,IUCN MPA,Interface,https://www.floridastateparks.org/park/Oscar-Scherer,555586047,FL801,State Park,5.61368,0.005494016,0,0,-82.46007863,27.18079112,90,0.160403454,0.000509245,7093954.035,19291.42777
148,148,FL802,Perdido Key State Park,State,FL,Uniform Multiple Use,Florida Department of Environmental Protection,Site-Specific Management Plan,Natural Heritage,Natural Heritage and Sustainable Production,Commercial and Recreational Fishing Restricted,Ecosystem,Permanent,Year-round,1978,Unrestricted,Unrestricted,1,IV,IUCN MPA,Mixed,https://www.floridastateparks.org/park/Perdido-Key,555586048,FL802,State Park,1.22987,0.099401481,8,0,-87.46873035,30.2919897,324,0.128274205,0.00011494,1649557.66,14647.24049
149,149,FL804,San Marcos De Apalache Historic State Park,State,FL,Uniform Multiple Use,Florida Department of Environmental Protection,Site-Specific Management Plan,Natural Heritage,Natural Heritage and Sustainable Production,Commercial and Recreational Fishing Restricted,Ecosystem,Permanent,Year-round,1964,,,1,IV,IUCN MPA,Marine,https://www.floridastateparks.org/park/San-Marcos,555586904,FL804,Historic State Park,0.0681263,0.068126284,100,0,-84.21026651,30.1521246,59,0.015654115,6.35784E-06,91114.82227,1899.842818
150,150,FL806,Seabranch Preserve State Park,State,FL,Uniform Multiple Use,Florida Department of Environmental Protection,Site-Specific Management Plan,Natural Heritage,Natural Heritage and Sustainable Production,Commercial and Recreational Fishing Restricted,Ecosystem,Permanent,Year-round,1991,,,1,IV,IUCN MPA,Interface,https://www.floridastateparks.org/park/Seabranch,555585663,FL806,State Park,3.74175,0.00884812,0,0,-80.1684056,27.1352386,104,0.112056056,0.000339293,4724557.111,13020.07514
151,151,FL807,Sebastian Inlet State Park,State,FL,Uniform Multiple Use,Florida Department of Environmental Protection,Site-Specific Management Plan,Natural Heritage,Natural Heritage and Sustainable Production,Commercial and Recreational Fishing Restricted,Ecosystem,Permanent,Year-round,1966,Unrestricted,Unrestricted,1,IV,IUCN MPA,Mixed,https://www.floridastateparks.org/park/sebastian-inlet,555586780,FL807,State Park,3.51933,0.554411173,16,0,-80.45184953,27.85956249,1925,0.392263654,0.000321231,4502577.082,46736.19419
152,152,FL808,Dr. Julian G. Bruce St. George Island State Park,State,FL,Uniform Multiple Use,Florida Department of Environmental Protection,Site-Specific Management Plan,Natural Heritage,Natural Heritage and Sustainable Production,Commercial and Recreational Fishing Restricted,Ecosystem,Permanent,Year-round,1963,Unrestricted,Unrestricted,1,IV,IUCN MPA,Mixed,https://www.floridastateparks.org/park/St-George-Island,555586012,FL808,State Park,8.2172,0.526150525,6,0,-84.74919968,29.71997785,707,0.415076124,0.000763541,10894955.01,49174.07566
153,153,FL809,St. Andrews State Park,State,FL,Uniform Multiple Use,Florida Department of Environmental Protection,Site-Specific Management Plan,Natural Heritage,Natural Heritage and Sustainable Production,Commercial and Recreational Fishing Restricted,Ecosystem,Permanent,Year-round,1946,Unrestricted,Unrestricted,1,IV,IUCN MPA,Interface,https://www.floridastateparks.org/park/St-Andrews,555586053,FL809,State Park,4.75025,0.192275062,4,0,-85.72018395,30.11821395,1366,0.330279,0.000443162,6348816.563,39075.28722
154,154,FL810,St. Lucie Inlet Preserve State Park,State,FL,Uniform Multiple Use,Florida Department of Environmental Protection,Site-Specific Management Plan,Natural Heritage,Natural Heritage and Sustainable Production,Commercial and Recreational Fishing Restricted,Ecosystem,Permanent,Year-round,1965,Restricted,Unrestricted,1,IV,IUCN MPA,Mixed,https://www.floridastateparks.org/park/St-Lucie-Inlet,29737,FL810,State Park,19.6984,16.02847099,81,0,-80.14022232,27.13426109,268,0.222118555,0.001786113,24872040.54,26403.89757
155,155,FL811,Stump Pass Beach State Park,State,FL,Uniform Multiple Use,Florida Department of Environmental Protection,Site-Specific Management Plan,Natural Heritage,Natural Heritage and Sustainable Production,Commercial and Recreational Fishing Restricted,Ecosystem,Permanent,Year-round,1971,Unrestricted,Unrestricted,1,IV,IUCN MPA,Mixed,https://www.floridastateparks.org/park/stump-pass,555586055,FL811,State Park,1.03122,0.256740898,25,0,-82.34452387,26.90422727,577,0.123704522,9.33168E-05,1296738.162,14767.42587
156,156,FL812,Tarkiln Bayou State Preserve,State,FL,Uniform Multiple Use,Florida Department of Environmental Protection,Site-Specific Management Plan,Natural Heritage,Natural Heritage and Sustainable Production,Commercial and Recreational Fishing Restricted,Ecosystem,Permanent,Year-round,1997,,,1,IV,IUCN MPA,Interface,https://www.floridastateparks.org/park/tarkiln-bayou,555585664,FL812,State Preserve,15.33,0.182955414,1,0,-87.39313502,30.36210262,575,0.511074765,0.001433727,20590856.12,61095.73626
157,157,FL813,The Barnacle Historic State Park,State,FL,Uniform Multiple Use,Florida Department of Environmental Protection,Site-Specific Management Plan,Natural Heritage,Natural Heritage and Sustainable Production,Commercial and Recreational Fishing Restricted,Ecosystem,Permanent,Year-round,1973,,,1,IV,IUCN MPA,Mixed,https://www.floridastateparks.org/park/the-barnacle,555586909,FL813,State Park,0.0376611,0.016813667,45,0,-80.24143808,25.72431813,7,0.014321905,3.37348E-06,46403.09375,1667.93916
158,158,FL814,T.H. Stone Memorial St. Joseph Peninsula State Park,State,FL,Zoned Multiple Use,Florida Department of Environmental Protection,Site-Specific Management Plan,Natural Heritage,Natural Heritage and Sustainable Production,Commercial and Recreational Fishing Restricted,Ecosystem,Permanent,Year-round,1964,Unrestricted,Unrestricted,1,IV,IUCN MPA,Interface,https://www.floridastateparks.org/park/St-Joseph,23056,FL814,State Park,11.0288,0.335350901,3,0,-85.40615028,29.79320135,526,0.345900486,0.001025803,14651534.65,43015.25271
159,159,FL815,Tomoka State Park,State,FL,Uniform Multiple Use,Florida Department of Environmental Protection,Site-Specific Management Plan,Natural Heritage,Natural Heritage and Sustainable Production,Commercial and Recreational Fishing Restricted,Ecosystem,Permanent,Year-round,1946,,,1,IV,IUCN MPA,Mixed,https://www.floridastateparks.org/park/Tomoka,555586058,FL815,State Park,6.5573,0.729044199,11,0,-81.08309564,29.31957962,923,0.250350201,0.000606896,8625612.273,30519.55084
160,160,FL816,Topsail Hill Preserve State Park,State,FL,Uniform Multiple Use,Florida Department of Environmental Protection,Site-Specific Management Plan,Natural Heritage,Natural Heritage and Sustainable Production,Commercial and Recreational Fishing Restricted,Ecosystem,Permanent,Year-round,1992,Unrestricted,Unrestricted,1,IV,IUCN MPA,Interface,https://www.floridastateparks.org/park/Topsail-Hill,555585666,FL816,State Park,6.67059,0.204716235,3,0,-86.29029587,30.36755943,328,0.156559974,0.000623895,8960734.43,18194.46689
161,161,FL817,Waccasassa Bay State Preserve,State,FL,Uniform Multiple Use,Florida Department of Environmental Protection,Site-Specific Management Plan,Natural Heritage,Natural Heritage and Sustainable Production,Commercial and Recreational Fishing Restricted,Ecosystem,Permanent,Year-round,1971,,,1,IV,IUCN MPA,Mixed,https://www.floridastateparks.org/park/Waccasassa-Bay,666672,FL817,State Preserve,138.407,22.93889427,17,0,-82.83092216,29.16994469,3114,2.026895679,0.012788427,181451884.2,238389.6111
162,162,FL818,Windley Key Fossil Reef Geological State Park,State,FL,Uniform Multiple Use,Florida Department of Environmental Protection,Site-Specific Management Plan,Natural Heritage,"Natural Heritage, Cultural Heritage and Sustainable Production",Commercial and Recreational Fishing Restricted,Ecosystem,Permanent,Year-round,1986,Unrestricted,Restricted,1,IV,IUCN MPA,Marine,https://www.floridastateparks.org/park/Windley-Key,555586781,FL818,State Park,0.13053,0.130530119,100,0,-80.59417349,24.95079243,10,0.017612088,1.16177E-05,158785.4551,2022.896971
163,163,GA1,Altamaha Wildlife Management Area,State,GA,Uniform Multiple Use,Georgia Department of Natural Resources,No Management Plan,Natural Heritage,Natural Heritage and Sustainable Production,Commercial Fishing Prohibited,Ecosystem,Permanent,Year-round,1955,,,1,VI,IUCN MPA,Interface,https://georgiawildlife.com/altamaha-wma,0,GA1,Wildlife Management Area,118.792,4.12607336,3,0,-81.47532742,31.40644392,2442,1.770166151,0.011228093,162971525.3,209954.0276
164,164,GA11,Little Tybee Island/Cabbage Island Natural Area,State,GA,Uniform Multiple Use,Georgia Department of Natural Resources,Site-Specific Management Plan,Natural Heritage,Natural Heritage,Commercial Fishing Prohibited,Ecosystem,Permanent,Year-round,1992,,,1,V,IUCN MPA,Mixed,https://www.protectedplanet.net/little-tybee-island-cabbage-island-natural-area,555586913,GA11,Natural Area,33.3776,4.379027367,13,0,-80.90814311,31.9696578,298,0.362739165,0.003175037,46379610.94,43799.10577
165,165,GA15,Ossabaw Island Wildlife Management Area,State,GA,Uniform Multiple Use,Georgia Department of Natural Resources,Site-Specific Management Plan,Natural Heritage,Natural Heritage and Cultural Heritage,Restrictions Unknown,Ecosystem,Permanent,Year-round,1978,,,1,VI,IUCN MPA,Mixed,https://georgiawildlife.com/ossabaw-island-wma,372796,GA15,Wildlife Management Area,114.464,10.65989685,9,0,-81.11392308,31.79581918,835,0.630227754,0.010867833,158453472.3,75843.34649
166,166,GA16,Sapelo Island Wildlife Management Area,State,GA,Uniform Multiple Use,Georgia Department of Natural Resources,Site-Specific Management Plan,Natural Heritage,Natural Heritage and Sustainable Production,Commercial Fishing Restricted,Ecosystem,Permanent,Year-round,1969,,,1,VI,IUCN MPA,Interface,https://www.exploregeorgia.org/listing/3994-sapelo-island-wildlife-management-area,374376,GA16,Wildlife Management Area,76.6046,4.213181019,5,0,-81.2657425,31.4535242,862,0.540295636,0.007246548,105266992.7,66031.55755
167,167,GA23,Skidaway Island State Park,State,GA,Uniform Multiple Use,Georgia Department of Natural Resources,MPA Programmatic Management Plan,Natural Heritage,Natural Heritage,Commercial Fishing Prohibited and Recreational Fishing Restricted,Ecosystem,Permanent,Year-round,1975,,,1,IV,IUCN MPA,Interface,http://gastateparks.org/SkidawayIsland,0,GA23,State Park,2.05536,0.025339309,1,0,-81.05313917,31.95601299,68,0.083077494,0.000195486,2855142.537,10116.97943
168,168,GA5,Crooked River State Park,State,GA,Uniform Multiple Use,Georgia Department of Natural Resources,MPA Programmatic Management Plan,Natural Heritage,Natural Heritage,Commercial Fishing Prohibited,Ecosystem,Permanent,Year-round,1942,,,1,IV,IUCN MPA,Interface,https://gastateparks.org/CrookedRiver,0,GA5,State Park,2.0752,0.028677978,1,0,-81.55248667,30.84137309,54,0.059884905,0.000195044,2815065.178,7024.168579
169,169,GA7,Fort McAllister State Park,State,GA,Uniform Multiple Use,Georgia Department of Natural Resources,No Management Plan,Natural Heritage,Natural Heritage and Cultural Heritage,Commercial Fishing Restricted,Focal Resource,Permanent,Year-round,1970,,,1,IV,IUCN MPA,Mixed,https://gastateparks.org/FortMcAllister,0,GA7,State Park,0.984093,0.073003992,7,0,-81.18919152,31.88691278,140,0.076743495,9.35274E-05,1364979.854,9091.474507
170,170,GA9,Hofwyl-Broadfield Plantation Historic Site,State,GA,Uniform Multiple Use,Georgia Department of Natural Resources,No Management Plan,Natural Heritage,Natural Heritage and Cultural Heritage,Commercial Fishing Prohibited and Recreational Fishing Restricted,Ecosystem,Permanent,Year-round,1973,,,1,IV,IUCN MPA,Interface,https://gastateparks.org/HofwylBroadfield,0,GA9,Historic Site,5.13464,0.07859768,2,0,-81.45205072,31.30904055,71,0.125293726,0.000484973,7034115.994,15456.92657
171,171,GU10,Pati Point Preserve,Territorial,US-GU,Zoned Multiple Use,Guam Department of Agriculture,MPA Programmatic Management Plan,Natural Heritage,Natural Heritage,Commercial Fishing Restricted and Recreational Fishing Prohibited,Ecosystem,Permanent,Year-round,1997,,Unrestricted,1,IV,IUCN MPA,Marine,https://www.guamvisitorsbureau.com/docs/resources/press-kits/guam-sample-itineraries/tour-series-marine-preserves.pdf,0,GU10,Preserve,20.1109,19.9337635,99,0,144.9395251,13.57411249,6013,0.309457114,0.001669682,21287239.59,34950.89215
172,172,GU12,Tumon Bay Preserve,Territorial,US-GU,Zoned Multiple Use,Guam Department of Agriculture,MPA Programmatic Management Plan,Natural Heritage,Natural Heritage,Commercial Fishing Restricted and Recreational Fishing Prohibited,Ecosystem,Permanent,Year-round,1997,,,1,IV,IUCN MPA,Marine,https://www.guamvisitorsbureau.com/docs/resources/press-kits/guam-sample-itineraries/tour-series-marine-preserves.pdf,0,GU12,Preserve,4.56552,4.524246693,99,0,144.7953746,13.51678406,878,0.091692479,0.00037892,4829353.908,10364.2701
173,173,GU16,Haputo Ecological Reserve Area,Federal,US-GU,Uniform Multiple Use,"U.S. Naval Station, Guam",Site-Specific Management Plan,Natural Heritage,Natural Heritage and Cultural Heritage,Restrictions Unknown,Ecosystem,Permanent,Year-round,1984,,,1,IV,IUCN MPA,Mixed,https://sablan.house.gov/sites/sablan.house.gov/files/documents/14a.%20Haputo%20ERA%20Management%20Plan%20Navy%20Lands%20Guam%20August%202010.pdf,0,GU16,Ecological Reserve Area,1.24298,0.573059738,46,0,144.8341056,13.59310983,160,0.07356688,0.000103193,1315599.572,8337.003208
174,174,GU3,Piti Bomb Holes Preserve,Territorial,US-GU,Zoned Multiple Use,Guam Department of Agriculture,MPA Programmatic Management Plan,Natural Heritage,Natural Heritage,Commercial Fishing Restricted and Recreational Fishing Prohibited,Ecosystem,Permanent,Year-round,1997,Unrestricted,,1,IV,IUCN MPA,Marine,https://www.coris.noaa.gov/activities/habitat_assessment/guam.pdf,0,GU3,Preserve,3.66123,3.57734108,98,0,144.6967875,13.4736449,765,0.077971765,0.000303812,3871400.865,8780.790854
175,175,GU7,Orote Ecological Reserve Area,Federal,US-GU,Uniform Multiple Use,"U.S. Naval Station, Guam",Site-Specific Management Plan,Natural Heritage,Natural Heritage,Restrictions Unknown,Ecosystem,Permanent,Year-round,1984,,,1,IV,IUCN MPA,Mixed,https://sablan.house.gov/sites/sablan.house.gov/files/documents/13a.%20Orote%20Peninsula%20ERA%20Management%20Plan%20Navy%20Lands%20Guam%20%20August%202010.pdf,0,GU7,Ecological Reserve Area,0.75588,0.66545403,88,0,144.6281749,13.43581927,258,0.067013727,6.27137E-05,799018.1504,7552.24828
176,176,GU9,Achang Reef Flat,Territorial,US-GU,Zoned Multiple Use,Guam Department of Agriculture,MPA Programmatic Management Plan,Natural Heritage,Natural Heritage,Commercial Fishing Restricted and Recreational Fishing Prohibited,Ecosystem,Permanent,Year-round,1997,Unrestricted,Unrestricted,1,IV,IUCN MPA,Marine,https://www.guamvisitorsbureau.com/docs/resources/press-kits/guam-sample-itineraries/tour-series-marine-preserves.pdf,0,GU9,Preserve,4.65746,4.543699265,98,0,144.7037798,13.24348923,1276,0.106816486,0.000386121,4915528.98,12020.76372
177,177,HI34,Kaho'olawe Island Reserve,Partnership,HI,Zoned Multiple Use,Hawaii Department of Land and Natural Resources,Site-Specific Management Plan,Natural Heritage,Cultural Heritage,Commercial Fishing Prohibited and Recreational Fishing Restricted,Ecosystem,Permanent,Year-round,1993,Prohibited,Restricted,1,IV,IUCN MPA,Marine,http://dlnr.hawaii.gov/dar/fishing/fishing-regulations/regulated-areas/regulated-fishing-areas-in-maui-county/#kahoolawe-island-reserve,555586885,HI34,Reserve,202.944,202.9442749,100,0,-156.608789,20.49743565,3473,1.284384454,0.017489348,231451133.5,146956.6075
178,178,IN1,Indiana Dunes State Park (Dunes Nature Preserve),State,IN,Zoned w/No Take Areas,Indiana Department of Natural Resources,Site-Specific Management Plan,Natural Heritage,Natural Heritage,Recreational Fishing Restricted,Ecosystem,Permanent,Year-round,1925,,,1,IV,IUCN MPA,Mixed,https://www.in.gov/dnr/parklake/2980.htm,368040,IN1,State Park,9.42046,0.762947679,8,0,-87.03674277,41.66431293,29,0.153006049,0.001017603,16879807.92,18724.14287
179,179,LA1,Atchafalaya Delta Wildlife Management Area and Game Preserve,State,LA,Uniform Multiple Use,Louisiana Department of Wildlife and Fisheries,Site-Specific Management Plan,Natural Heritage,Natural Heritage,Commercial and Recreational Fishing Restricted,Focal Resource,Conditional,Year-round,1977,Restricted,Unrestricted,1,VI,IUCN MPA,Marine,http://www.wlf.louisiana.gov/wma/32639,0,LA1,Wildlife Management Area and Game Preserve,559.344,544.0941772,97,0,-91.39552288,29.43107871,2440,1.10282695,0.051826661,737393106.1,129972.5992
180,180,MA15,Cape and Islands Ocean Sanctuary,State,MA,Uniform Multiple Use,Massachusetts Department of Conservation and Recreation,MPA Programmatic Management Plan,Natural Heritage,Natural Heritage,No Site Restrictions,Ecosystem,Permanent,Year-round,1971,,,1,V,IUCN MPA,Marine,https://www.mass.gov/service-details/czm-ocean-management-publications,0,MA15,Ocean Sanctuary,2786.23,2775.998291,100,0,-70.49139713,41.44396754,19646,14.76520713,0.299947014,4958589776,1858114.177
181,181,MA16,Cape Cod Bay Ocean Sanctuary,State,MA,Uniform Multiple Use,Massachusetts Department of Conservation and Recreation,MPA Programmatic Management Plan,Natural Heritage,Natural Heritage,No Site Restrictions,Ecosystem,Permanent,Year-round,1971,,,1,V,IUCN MPA,Marine,https://www.mass.gov/service-details/czm-ocean-management-publications,0,MA16,Ocean Sanctuary,1510.54,1509.034058,100,0,-70.33061052,41.91543885,10322,5.571683995,0.163810199,2727948585,700526.2786
182,182,MA17,Cape Cod Ocean Sanctuary,State,MA,Uniform Multiple Use,Massachusetts Department of Conservation and Recreation,MPA Programmatic Management Plan,Natural Heritage,Natural Heritage,No Site Restrictions,Ecosystem,Permanent,Year-round,1970,,,1,V,IUCN MPA,Marine,https://www.mass.gov/service-details/czm-ocean-management-publications,0,MA17,Ocean Sanctuary,491.275,490.5265198,100,0,-69.99562368,42.08801674,1717,2.54212718,0.053232298,885757885.4,337746.3398
183,183,MA18,North Shore Ocean Sanctuary,State,MA,Uniform Multiple Use,Massachusetts Department of Conservation and Recreation,MPA Programmatic Management Plan,Natural Heritage,Natural Heritage,No Site Restrictions,Ecosystem,Permanent,Year-round,1972,,,1,V,IUCN MPA,Marine,https://www.mass.gov/service-details/czm-ocean-management-publications,0,MA18,Ocean Sanctuary,427.265,426.521759,100,0,-70.66646331,42.59331712,6631,3.588543642,0.046897546,790473018,461076.3197
184,184,MA19,South Essex Ocean Sanctuary,State,MA,Uniform Multiple Use,Massachusetts Department of Conservation and Recreation,MPA Programmatic Management Plan,Natural Heritage,Natural Heritage,No Site Restrictions,Ecosystem,Permanent,Year-round,1976,,,1,V,IUCN MPA,Marine,https://www.mass.gov/service-details/czm-ocean-management-publications,0,MA19,Ocean Sanctuary,223.213,223.1027222,100,0,-70.76268603,42.48611785,2954,1.473277274,0.024425779,410454770.1,183668.7777
185,185,MA25,Egg Rock (Henry Cabot Lodge) State Wildlife Sanctuary,State,MA,Uniform Multiple Use,Massachusetts Division of Fisheries and Wildlife,No Management Plan,Natural Heritage,Natural Heritage,No Site Restrictions,Focal Resource,Permanent,Seasonal,1925,,,1,IV,IUCN MPA,Mixed,https://www.mass.gov/service-details/types-of-masswildlife-properties,0,MA25,State Wildlife Sanctuary,0.0105687,0.007322375,69,0,-70.89809338,42.4335351,46,0.00515973,1.15555E-06,19401.62109,634.9268236
186,186,MA29,Horseneck Beach State Reservation,State,MA,Uniform Multiple Use,Massachusetts Department of Conservation and Recreation,Site-Specific Management Plan,Natural Heritage,Natural Heritage,Recreational Fishing Restricted,Focal Resource,Permanent,Seasonal,1957,,,1,IV,IUCN MPA,Mixed,https://www.mass.gov/locations/horseneck-beach-state-reservation,555586794,MA29,State Reservation,2.84807,0.258075714,9,0,-71.04988855,41.50499446,1357,0.218784451,0.000306892,5078147.363,28079.07055
187,187,MA33,Milk Island (Knight) State Wildlife Sanctuary,State,MA,Uniform Multiple Use,Massachusetts Division of Fisheries and Wildlife,No Management Plan,Natural Heritage,Natural Heritage,No Site Restrictions,Ecosystem,Permanent,Seasonal,1925,,,1,VI,IUCN MPA,Mixed,https://www.mass.gov/service-details/types-of-masswildlife-properties,0,MA33,State Wildlife Sanctuary,0.100539,0.052498136,52,0,-70.58954036,42.62814243,93,0.014957314,1.10269E-05,185719.9961,1941.317942
188,188,MA41,Ram Island State Wildlife Sanctuary - Salisbury,State,MA,Uniform Multiple Use,Massachusetts Division of Fisheries and Wildlife,No Management Plan,Natural Heritage,Natural Heritage,No Site Restrictions,Ecosystem,Permanent,Seasonal,1925,,,1,VI,IUCN MPA,Mixed,https://www.mass.gov/service-details/types-of-masswildlife-properties,0,MA41,State Wildlife Sanctuary,0.108048,0.028163761,26,0,-70.87501904,42.82515799,96,0.021205674,1.18742E-05,200395.1406,2694.279318
189,189,MA47,William Forward Wildlife Management Area,State,MA,Uniform Multiple Use,Massachusetts Division of Fisheries and Wildlife,No Management Plan,Natural Heritage,Natural Heritage,No Site Restrictions,Ecosystem,Permanent,Seasonal,1960,,,1,VI,IUCN MPA,Interface,https://www.mass.gov/how-to/masswildlife-lands-viewer,0,MA47,Wildlife Management Area,7.62068,0.234893724,3,0,-70.8773022,42.74309591,2237,0.513256287,0.000837526,14134725.34,66560.89546
190,190,MA53,Demarest Lloyd State Park,State,MA,Uniform Multiple Use,Massachusetts Department of Conservation and Recreation,Site-Specific Management Plan,Natural Heritage,Natural Heritage,Recreational Fishing Restricted,Ecosystem,Permanent,Seasonal,1953,,,1,IV,IUCN MPA,Mixed,https://www.mass.gov/locations/demarest-lloyd-state-park,555586795,MA53,State Park,0.872635,0.048675388,6,0,-70.98461763,41.52899111,137,0.07056464,9.40652E-05,1557074.34,8915.663248
191,191,MI136,Alger Great Lakes State Bottomland Preserve,State,MI,Uniform Multiple Use,Michigan Department of Environmental Quality,No Management Plan,Natural Heritage,Cultural Heritage,No Site Restrictions,Focal Resource,Permanent,Year-round,1981,Restricted,Unrestricted,1,IV,IUCN MPA,Marine,"https://www.michigan.gov/deq/0,4561,7-135-3313_3677_3701-14591--,00.html",0,MI136,State Bottomland Preserve,342.524,333.7705994,97,0,-86.47527337,46.63853095,3279,2.400355544,0.040208766,724828087.3,314830.652
192,192,MI142,Detour Passage Great Lakes State Bottomland Preserve,State,MI,Uniform Multiple Use,Michigan Department of Environmental Quality,No Management Plan,Natural Heritage,Cultural Heritage,No Site Restrictions,Focal Resource,Permanent,Year-round,1999,Restricted,Unrestricted,1,IV,IUCN MPA,Marine,"https://www.michigan.gov/deq/0,1607,7-135-3313_3677_3701-14591--,00.html",0,MI142,State Bottomland Preserve,35.3915,33.73174667,95,0,-83.88507973,45.99166508,1757,0.783584973,0.004110736,73320530.41,102375.4158
193,193,MI148,Keweenaw Great Lakes State Bottomland Preserve,State,MI,Uniform Multiple Use,Michigan Department of Environmental Quality,No Management Plan,Natural Heritage,Cultural Heritage,No Site Restrictions,Focal Resource,Permanent,Year-round,1991,Restricted,Unrestricted,1,IV,IUCN MPA,Marine,"https://www.michigan.gov/deq/0,4561,7-135-3313_3677_3701-14591--,00.html",0,MI148,State Bottomland Preserve,501.251,496.3811035,99,0,-88.25577857,47.32259795,3660,3.995719831,0.059701344,1092566830,482865.1731
194,194,MI155,Manitou Passage Great Lakes State Bottomland Preserve,State,MI,Uniform Multiple Use,Michigan Department of Environmental Quality,No Management Plan,Natural Heritage,Cultural Heritage,No Site Restrictions,Focal Resource,Permanent,Year-round,1989,Restricted,Unrestricted,1,IV,IUCN MPA,Marine,"https://www.michigan.gov/deq/0,4561,7-135-3313_3677_3701-14591--,00.html",0,MI155,State Bottomland Preserve,729.608,727.8898926,100,0,-86.08914782,44.96059864,2154,2.146813029,0.08322002,1457456639,290832.8959
195,195,MI156,Marquette Great Lakes State Bottomland Preserve,State,MI,Uniform Multiple Use,Michigan Department of Environmental Quality,No Management Plan,Natural Heritage,Cultural Heritage,No Site Restrictions,Focal Resource,Permanent,Year-round,1991,Restricted,Unrestricted,1,IV,IUCN MPA,Marine,"https://www.michigan.gov/deq/0,4561,7-135-3313_3677_3701-14591--,00.html",0,MI156,State Bottomland Preserve,453.001,448.9048767,99,0,-87.5711987,46.53169586,6032,2.362505623,0.053338004,964455925.1,300765.596
196,196,MI159,Sanilac Shores Great Lakes State Underwater Preserve,State,MI,Uniform Multiple Use,Michigan Department of Environmental Quality,No Management Plan,Natural Heritage,Cultural Heritage,No Site Restrictions,Focal Resource,Permanent,Year-round,1988,Restricted,Unrestricted,1,IV,IUCN MPA,Marine,"https://www.michigan.gov/deq/0,4561,7-135-3313_3677_3701-14591--,00.html",0,MI159,State Underwater Preserve,433.694,432.8130798,100,0,-82.49063035,43.44820753,1426,1.040134044,0.048203726,822833129.3,144915.3326
197,197,MI163,Southwest Michigan Great Lakes State Bottomland Preserve,State,MI,Uniform Multiple Use,Michigan Department of Environmental Quality,No Management Plan,Natural Heritage,Cultural Heritage,No Site Restrictions,Focal Resource,Permanent,Year-round,1999,Restricted,Unrestricted,1,IV,IUCN MPA,Marine,"https://www.michigan.gov/deq/0,1607,7-135-3313_3677_3701-14591--,00.html",0,MI163,State Bottomland Preserve,961.531,954.2153931,99,0,-86.41360555,42.33357389,1574,2.314965173,0.104984353,1760554846,326234.59
198,198,MI164,Straits of Mackinac Great Lakes State Bottomland Preserve,State,MI,Uniform Multiple Use,Michigan Department of Environmental Quality,No Management Plan,Natural Heritage,Cultural Heritage,No Site Restrictions,Focal Resource,Permanent,Year-round,1983,Restricted,Unrestricted,1,IV,IUCN MPA,Marine,"https://www.michigan.gov/deq/0,4561,7-135-3313_3677_3701-14591--,00.html",0,MI164,State Bottomland Preserve,385.942,382.8374329,99,0,-84.72420795,45.79593527,3026,1.61430056,0.044670024,793953017.8,207397.3391
